{"type":"FeatureCollection","name":"ne_10m_admin_2_label_points","crs":{"type":"name","properties":{"name":"urn:ogc:def:crs:OGC:1.3:CRS84"}},"features":[{"type":"Feature","properties":{"FEATURECLA":"Admin-2 scale rank","SCALERANK":0,"ADM2_CODE":"USA-01001","ISO_A2":"US","ADM0_SR":1,"NAME":"Autauga","SR_SOV_A3":"US1","SR_ADM0_A3":"USA","ADMIN":"United States of America","SR_GU_A3":"USA"},"bbox":[-86.623726,32.552808,-86.623726,32.552808],"geometry":{"type":"Point","coordinates":[-86.623726,32.552808]}},{"type":"Feature","properties":{"FEATURECLA":"Admin-2 scale rank","SCALERANK":0,"ADM2_CODE":"USA-01005","ISO_A2":"US","ADM0_SR":1,"NAME":"Barbour","SR_SOV_A3":"US1","SR_ADM0_A3":"USA","ADMIN":"United States of America","SR_GU_A3":"USA"},"bbox":[-85.432664,31.858017,-85.432664,31.858017],"geometry":{"type":"Point","coordinates":[-85.432664,31.858017]}},{"type":"Feature","properties":{"FEATURECLA":"Admin-2 scale rank","SCALERANK":0,"ADM2_CODE":"USA-01007","ISO_A2":"US","ADM0_SR":1,"NAME":"Bibb","SR_SOV_A3":"US1","SR_ADM0_A3":"USA","ADMIN":"United States of America","SR_GU_A3":"USA"},"bbox":[-87.105247,32.997659,-87.105247,32.997659],"geometry":{"type":"Point","coordinates":[-87.105247,32.997659]}},{"type":"Feature","properties":{"FEATURECLA":"Admin-2 scale rank","SCALERANK":0,"ADM2_CODE":"USA-01009","ISO_A2":"US","ADM0_SR":1,"NAME":"Blount","SR_SOV_A3":"US1","SR_ADM0_A3":"USA","ADMIN":"United States of America","SR_GU_A3":"USA"},"bbox":[-86.57274,33.975156,-86.57274,33.975156],"geometry":{"type":"Point","coordinates":[-86.57274,33.975156]}},{"type":"Feature","properties":{"FEATURECLA":"Admin-2 scale rank","SCALERANK":0,"ADM2_CODE":"USA-01011","ISO_A2":"US","ADM0_SR":1,"NAME":"Bullock","SR_SOV_A3":"US1","SR_ADM0_A3":"USA","ADMIN":"United States of America","SR_GU_A3":"USA"},"bbox":[-85.717303,32.091957,-85.717303,32.091957],"geometry":{"type":"Point","coordinates":[-85.717303,32.091957]}},{"type":"Feature","properties":{"FEATURECLA":"Admin-2 scale rank","SCALERANK":0,"ADM2_CODE":"USA-01013","ISO_A2":"US","ADM0_SR":1,"NAME":"Butler","SR_SOV_A3":"US1","SR_ADM0_A3":"USA","ADMIN":"United States of America","SR_GU_A3":"USA"},"bbox":[-86.69278,31.74338,-86.69278,31.74338],"geometry":{"type":"Point","coordinates":[-86.69278,31.74338]}},{"type":"Feature","properties":{"FEATURECLA":"Admin-2 scale rank","SCALERANK":0,"ADM2_CODE":"USA-01017","ISO_A2":"US","ADM0_SR":1,"NAME":"Chambers","SR_SOV_A3":"US1","SR_ADM0_A3":"USA","ADMIN":"United States of America","SR_GU_A3":"USA"},"bbox":[-85.388359,32.920736,-85.388359,32.920736],"geometry":{"type":"Point","coordinates":[-85.388359,32.920736]}},{"type":"Feature","properties":{"FEATURECLA":"Admin-2 scale rank","SCALERANK":0,"ADM2_CODE":"USA-01019","ISO_A2":"US","ADM0_SR":1,"NAME":"Cherokee","SR_SOV_A3":"US1","SR_ADM0_A3":"USA","ADMIN":"United States of America","SR_GU_A3":"USA"},"bbox":[-85.618085,34.157929,-85.618085,34.157929],"geometry":{"type":"Point","coordinates":[-85.618085,34.157929]}},{"type":"Feature","properties":{"FEATURECLA":"Admin-2 scale rank","SCALERANK":0,"ADM2_CODE":"USA-01021","ISO_A2":"US","ADM0_SR":1,"NAME":"Chilton","SR_SOV_A3":"US1","SR_ADM0_A3":"USA","ADMIN":"United States of America","SR_GU_A3":"USA"},"bbox":[-86.691621,32.887665,-86.691621,32.887665],"geometry":{"type":"Point","coordinates":[-86.691621,32.887665]}},{"type":"Feature","properties":{"FEATURECLA":"Admin-2 scale rank","SCALERANK":0,"ADM2_CODE":"USA-01023","ISO_A2":"US","ADM0_SR":1,"NAME":"Choctaw","SR_SOV_A3":"US1","SR_ADM0_A3":"USA","ADMIN":"United States of America","SR_GU_A3":"USA"},"bbox":[-88.291346,32.004321,-88.291346,32.004321],"geometry":{"type":"Point","coordinates":[-88.291346,32.004321]}},{"type":"Feature","properties":{"FEATURECLA":"Admin-2 scale rank","SCALERANK":0,"ADM2_CODE":"USA-01025","ISO_A2":"US","ADM0_SR":1,"NAME":"Clarke","SR_SOV_A3":"US1","SR_ADM0_A3":"USA","ADMIN":"United States of America","SR_GU_A3":"USA"},"bbox":[-87.829907,31.724909,-87.829907,31.724909],"geometry":{"type":"Point","coordinates":[-87.829907,31.724909]}},{"type":"Feature","properties":{"FEATURECLA":"Admin-2 scale rank","SCALERANK":0,"ADM2_CODE":"USA-01027","ISO_A2":"US","ADM0_SR":1,"NAME":"Clay","SR_SOV_A3":"US1","SR_ADM0_A3":"USA","ADMIN":"United States of America","SR_GU_A3":"USA"},"bbox":[-85.829247,33.271746,-85.829247,33.271746],"geometry":{"type":"Point","coordinates":[-85.829247,33.271746]}},{"type":"Feature","properties":{"FEATURECLA":"Admin-2 scale rank","SCALERANK":0,"ADM2_CODE":"USA-01029","ISO_A2":"US","ADM0_SR":1,"NAME":"Cleburne","SR_SOV_A3":"US1","SR_ADM0_A3":"USA","ADMIN":"United States of America","SR_GU_A3":"USA"},"bbox":[-85.490054,33.659536,-85.490054,33.659536],"geometry":{"type":"Point","coordinates":[-85.490054,33.659536]}},{"type":"Feature","properties":{"FEATURECLA":"Admin-2 scale rank","SCALERANK":0,"ADM2_CODE":"USA-01031","ISO_A2":"US","ADM0_SR":1,"NAME":"Coffee","SR_SOV_A3":"US1","SR_ADM0_A3":"USA","ADMIN":"United States of America","SR_GU_A3":"USA"},"bbox":[-85.99066,31.399381,-85.99066,31.399381],"geometry":{"type":"Point","coordinates":[-85.99066,31.399381]}},{"type":"Feature","properties":{"FEATURECLA":"Admin-2 scale rank","SCALERANK":0,"ADM2_CODE":"USA-01033","ISO_A2":"US","ADM0_SR":1,"NAME":"Colbert","SR_SOV_A3":"US1","SR_ADM0_A3":"USA","ADMIN":"United States of America","SR_GU_A3":"USA"},"bbox":[-87.795375,34.658834,-87.795375,34.658834],"geometry":{"type":"Point","coordinates":[-87.795375,34.658834]}},{"type":"Feature","properties":{"FEATURECLA":"Admin-2 scale rank","SCALERANK":0,"ADM2_CODE":"USA-01035","ISO_A2":"US","ADM0_SR":1,"NAME":"Conecuh","SR_SOV_A3":"US1","SR_ADM0_A3":"USA","ADMIN":"United States of America","SR_GU_A3":"USA"},"bbox":[-87.001294,31.436659,-87.001294,31.436659],"geometry":{"type":"Point","coordinates":[-87.001294,31.436659]}},{"type":"Feature","properties":{"FEATURECLA":"Admin-2 scale rank","SCALERANK":0,"ADM2_CODE":"USA-01037","ISO_A2":"US","ADM0_SR":1,"NAME":"Coosa","SR_SOV_A3":"US1","SR_ADM0_A3":"USA","ADMIN":"United States of America","SR_GU_A3":"USA"},"bbox":[-86.247786,32.928957,-86.247786,32.928957],"geometry":{"type":"Point","coordinates":[-86.247786,32.928957]}},{"type":"Feature","properties":{"FEATURECLA":"Admin-2 scale rank","SCALERANK":0,"ADM2_CODE":"USA-01039","ISO_A2":"US","ADM0_SR":1,"NAME":"Covington","SR_SOV_A3":"US1","SR_ADM0_A3":"USA","ADMIN":"United States of America","SR_GU_A3":"USA"},"bbox":[-86.453671,31.252802,-86.453671,31.252802],"geometry":{"type":"Point","coordinates":[-86.453671,31.252802]}},{"type":"Feature","properties":{"FEATURECLA":"Admin-2 scale rank","SCALERANK":0,"ADM2_CODE":"USA-01041","ISO_A2":"US","ADM0_SR":1,"NAME":"Crenshaw","SR_SOV_A3":"US1","SR_ADM0_A3":"USA","ADMIN":"United States of America","SR_GU_A3":"USA"},"bbox":[-86.3099,31.71401,-86.3099,31.71401],"geometry":{"type":"Point","coordinates":[-86.3099,31.71401]}},{"type":"Feature","properties":{"FEATURECLA":"Admin-2 scale rank","SCALERANK":0,"ADM2_CODE":"USA-01043","ISO_A2":"US","ADM0_SR":1,"NAME":"Cullman","SR_SOV_A3":"US1","SR_ADM0_A3":"USA","ADMIN":"United States of America","SR_GU_A3":"USA"},"bbox":[-86.902238,34.128014,-86.902238,34.128014],"geometry":{"type":"Point","coordinates":[-86.902238,34.128014]}},{"type":"Feature","properties":{"FEATURECLA":"Admin-2 scale rank","SCALERANK":0,"ADM2_CODE":"USA-01045","ISO_A2":"US","ADM0_SR":1,"NAME":"Dale","SR_SOV_A3":"US1","SR_ADM0_A3":"USA","ADMIN":"United States of America","SR_GU_A3":"USA"},"bbox":[-85.60831,31.445237,-85.60831,31.445237],"geometry":{"type":"Point","coordinates":[-85.60831,31.445237]}},{"type":"Feature","properties":{"FEATURECLA":"Admin-2 scale rank","SCALERANK":0,"ADM2_CODE":"USA-01047","ISO_A2":"US","ADM0_SR":1,"NAME":"Dallas","SR_SOV_A3":"US1","SR_ADM0_A3":"USA","ADMIN":"United States of America","SR_GU_A3":"USA"},"bbox":[-87.102282,32.292966,-87.102282,32.292966],"geometry":{"type":"Point","coordinates":[-87.102282,32.292966]}},{"type":"Feature","properties":{"FEATURECLA":"Admin-2 scale rank","SCALERANK":0,"ADM2_CODE":"USA-01049","ISO_A2":"US","ADM0_SR":1,"NAME":"DeKalb","SR_SOV_A3":"US1","SR_ADM0_A3":"USA","ADMIN":"United States of America","SR_GU_A3":"USA"},"bbox":[-85.79922,34.437261,-85.79922,34.437261],"geometry":{"type":"Point","coordinates":[-85.79922,34.437261]}},{"type":"Feature","properties":{"FEATURECLA":"Admin-2 scale rank","SCALERANK":0,"ADM2_CODE":"USA-01051","ISO_A2":"US","ADM0_SR":1,"NAME":"Elmore","SR_SOV_A3":"US1","SR_ADM0_A3":"USA","ADMIN":"United States of America","SR_GU_A3":"USA"},"bbox":[-86.112393,32.594443,-86.112393,32.594443],"geometry":{"type":"Point","coordinates":[-86.112393,32.594443]}},{"type":"Feature","properties":{"FEATURECLA":"Admin-2 scale rank","SCALERANK":0,"ADM2_CODE":"USA-01053","ISO_A2":"US","ADM0_SR":1,"NAME":"Escambia","SR_SOV_A3":"US1","SR_ADM0_A3":"USA","ADMIN":"United States of America","SR_GU_A3":"USA"},"bbox":[-87.159356,31.130252,-87.159356,31.130252],"geometry":{"type":"Point","coordinates":[-87.159356,31.130252]}},{"type":"Feature","properties":{"FEATURECLA":"Admin-2 scale rank","SCALERANK":0,"ADM2_CODE":"USA-01055","ISO_A2":"US","ADM0_SR":1,"NAME":"Etowah","SR_SOV_A3":"US1","SR_ADM0_A3":"USA","ADMIN":"United States of America","SR_GU_A3":"USA"},"bbox":[-86.039373,34.04412,-86.039373,34.04412],"geometry":{"type":"Point","coordinates":[-86.039373,34.04412]}},{"type":"Feature","properties":{"FEATURECLA":"Admin-2 scale rank","SCALERANK":0,"ADM2_CODE":"USA-01057","ISO_A2":"US","ADM0_SR":1,"NAME":"Fayette","SR_SOV_A3":"US1","SR_ADM0_A3":"USA","ADMIN":"United States of America","SR_GU_A3":"USA"},"bbox":[-87.760263,33.733234,-87.760263,33.733234],"geometry":{"type":"Point","coordinates":[-87.760263,33.733234]}},{"type":"Feature","properties":{"FEATURECLA":"Admin-2 scale rank","SCALERANK":0,"ADM2_CODE":"USA-01059","ISO_A2":"US","ADM0_SR":1,"NAME":"Franklin","SR_SOV_A3":"US1","SR_ADM0_A3":"USA","ADMIN":"United States of America","SR_GU_A3":"USA"},"bbox":[-87.840221,34.442357,-87.840221,34.442357],"geometry":{"type":"Point","coordinates":[-87.840221,34.442357]}},{"type":"Feature","properties":{"FEATURECLA":"Admin-2 scale rank","SCALERANK":0,"ADM2_CODE":"USA-01061","ISO_A2":"US","ADM0_SR":1,"NAME":"Geneva","SR_SOV_A3":"US1","SR_ADM0_A3":"USA","ADMIN":"United States of America","SR_GU_A3":"USA"},"bbox":[-85.837802,31.098113,-85.837802,31.098113],"geometry":{"type":"Point","coordinates":[-85.837802,31.098113]}},{"type":"Feature","properties":{"FEATURECLA":"Admin-2 scale rank","SCALERANK":0,"ADM2_CODE":"USA-01063","ISO_A2":"US","ADM0_SR":1,"NAME":"Greene","SR_SOV_A3":"US1","SR_ADM0_A3":"USA","ADMIN":"United States of America","SR_GU_A3":"USA"},"bbox":[-87.983262,32.926935,-87.983262,32.926935],"geometry":{"type":"Point","coordinates":[-87.983262,32.926935]}},{"type":"Feature","properties":{"FEATURECLA":"Admin-2 scale rank","SCALERANK":0,"ADM2_CODE":"USA-01065","ISO_A2":"US","ADM0_SR":1,"NAME":"Hale","SR_SOV_A3":"US1","SR_ADM0_A3":"USA","ADMIN":"United States of America","SR_GU_A3":"USA"},"bbox":[-87.638252,32.78249,-87.638252,32.78249],"geometry":{"type":"Point","coordinates":[-87.638252,32.78249]}},{"type":"Feature","properties":{"FEATURECLA":"Admin-2 scale rank","SCALERANK":0,"ADM2_CODE":"USA-01067","ISO_A2":"US","ADM0_SR":1,"NAME":"Henry","SR_SOV_A3":"US1","SR_ADM0_A3":"USA","ADMIN":"United States of America","SR_GU_A3":"USA"},"bbox":[-85.236165,31.517069,-85.236165,31.517069],"geometry":{"type":"Point","coordinates":[-85.236165,31.517069]}},{"type":"Feature","properties":{"FEATURECLA":"Admin-2 scale rank","SCALERANK":0,"ADM2_CODE":"USA-01069","ISO_A2":"US","ADM0_SR":1,"NAME":"Houston","SR_SOV_A3":"US1","SR_ADM0_A3":"USA","ADMIN":"United States of America","SR_GU_A3":"USA"},"bbox":[-85.299014,31.155985,-85.299014,31.155985],"geometry":{"type":"Point","coordinates":[-85.299014,31.155985]}},{"type":"Feature","properties":{"FEATURECLA":"Admin-2 scale rank","SCALERANK":0,"ADM2_CODE":"USA-01071","ISO_A2":"US","ADM0_SR":1,"NAME":"Jackson","SR_SOV_A3":"US1","SR_ADM0_A3":"USA","ADMIN":"United States of America","SR_GU_A3":"USA"},"bbox":[-85.9917,34.75971,-85.9917,34.75971],"geometry":{"type":"Point","coordinates":[-85.9917,34.75971]}},{"type":"Feature","properties":{"FEATURECLA":"Admin-2 scale rank","SCALERANK":0,"ADM2_CODE":"USA-01073","ISO_A2":"US","ADM0_SR":1,"NAME":"Jefferson","SR_SOV_A3":"US1","SR_ADM0_A3":"USA","ADMIN":"United States of America","SR_GU_A3":"USA"},"bbox":[-86.860894,33.589457,-86.860894,33.589457],"geometry":{"type":"Point","coordinates":[-86.860894,33.589457]}},{"type":"Feature","properties":{"FEATURECLA":"Admin-2 scale rank","SCALERANK":0,"ADM2_CODE":"USA-01075","ISO_A2":"US","ADM0_SR":1,"NAME":"Lamar","SR_SOV_A3":"US1","SR_ADM0_A3":"USA","ADMIN":"United States of America","SR_GU_A3":"USA"},"bbox":[-88.093303,33.778936,-88.093303,33.778936],"geometry":{"type":"Point","coordinates":[-88.093303,33.778936]}},{"type":"Feature","properties":{"FEATURECLA":"Admin-2 scale rank","SCALERANK":0,"ADM2_CODE":"USA-01077","ISO_A2":"US","ADM0_SR":1,"NAME":"Lauderdale","SR_SOV_A3":"US1","SR_ADM0_A3":"USA","ADMIN":"United States of America","SR_GU_A3":"USA"},"bbox":[-87.746171,34.881971,-87.746171,34.881971],"geometry":{"type":"Point","coordinates":[-87.746171,34.881971]}},{"type":"Feature","properties":{"FEATURECLA":"Admin-2 scale rank","SCALERANK":0,"ADM2_CODE":"USA-01079","ISO_A2":"US","ADM0_SR":1,"NAME":"Lawrence","SR_SOV_A3":"US1","SR_ADM0_A3":"USA","ADMIN":"United States of America","SR_GU_A3":"USA"},"bbox":[-87.31161,34.503643,-87.31161,34.503643],"geometry":{"type":"Point","coordinates":[-87.31161,34.503643]}},{"type":"Feature","properties":{"FEATURECLA":"Admin-2 scale rank","SCALERANK":0,"ADM2_CODE":"USA-01081","ISO_A2":"US","ADM0_SR":1,"NAME":"Lee","SR_SOV_A3":"US1","SR_ADM0_A3":"USA","ADMIN":"United States of America","SR_GU_A3":"USA"},"bbox":[-85.324354,32.599709,-85.324354,32.599709],"geometry":{"type":"Point","coordinates":[-85.324354,32.599709]}},{"type":"Feature","properties":{"FEATURECLA":"Admin-2 scale rank","SCALERANK":0,"ADM2_CODE":"USA-01083","ISO_A2":"US","ADM0_SR":1,"NAME":"Limestone","SR_SOV_A3":"US1","SR_ADM0_A3":"USA","ADMIN":"United States of America","SR_GU_A3":"USA"},"bbox":[-86.97791,34.825944,-86.97791,34.825944],"geometry":{"type":"Point","coordinates":[-86.97791,34.825944]}},{"type":"Feature","properties":{"FEATURECLA":"Admin-2 scale rank","SCALERANK":0,"ADM2_CODE":"USA-01085","ISO_A2":"US","ADM0_SR":1,"NAME":"Lowndes","SR_SOV_A3":"US1","SR_ADM0_A3":"USA","ADMIN":"United States of America","SR_GU_A3":"USA"},"bbox":[-86.630588,32.15698,-86.630588,32.15698],"geometry":{"type":"Point","coordinates":[-86.630588,32.15698]}},{"type":"Feature","properties":{"FEATURECLA":"Admin-2 scale rank","SCALERANK":0,"ADM2_CODE":"USA-01087","ISO_A2":"US","ADM0_SR":1,"NAME":"Macon","SR_SOV_A3":"US1","SR_ADM0_A3":"USA","ADMIN":"United States of America","SR_GU_A3":"USA"},"bbox":[-85.698601,32.38068,-85.698601,32.38068],"geometry":{"type":"Point","coordinates":[-85.698601,32.38068]}},{"type":"Feature","properties":{"FEATURECLA":"Admin-2 scale rank","SCALERANK":0,"ADM2_CODE":"USA-01089","ISO_A2":"US","ADM0_SR":1,"NAME":"Madison","SR_SOV_A3":"US1","SR_ADM0_A3":"USA","ADMIN":"United States of America","SR_GU_A3":"USA"},"bbox":[-86.570966,34.7903,-86.570966,34.7903],"geometry":{"type":"Point","coordinates":[-86.570966,34.7903]}},{"type":"Feature","properties":{"FEATURECLA":"Admin-2 scale rank","SCALERANK":0,"ADM2_CODE":"USA-01091","ISO_A2":"US","ADM0_SR":1,"NAME":"Marengo","SR_SOV_A3":"US1","SR_ADM0_A3":"USA","ADMIN":"United States of America","SR_GU_A3":"USA"},"bbox":[-87.763191,32.239036,-87.763191,32.239036],"geometry":{"type":"Point","coordinates":[-87.763191,32.239036]}},{"type":"Feature","properties":{"FEATURECLA":"Admin-2 scale rank","SCALERANK":0,"ADM2_CODE":"USA-01093","ISO_A2":"US","ADM0_SR":1,"NAME":"Marion","SR_SOV_A3":"US1","SR_ADM0_A3":"USA","ADMIN":"United States of America","SR_GU_A3":"USA"},"bbox":[-87.850115,34.1476,-87.850115,34.1476],"geometry":{"type":"Point","coordinates":[-87.850115,34.1476]}},{"type":"Feature","properties":{"FEATURECLA":"Admin-2 scale rank","SCALERANK":0,"ADM2_CODE":"USA-01095","ISO_A2":"US","ADM0_SR":1,"NAME":"Marshall","SR_SOV_A3":"US1","SR_ADM0_A3":"USA","ADMIN":"United States of America","SR_GU_A3":"USA"},"bbox":[-86.286371,34.340827,-86.286371,34.340827],"geometry":{"type":"Point","coordinates":[-86.286371,34.340827]}},{"type":"Feature","properties":{"FEATURECLA":"Admin-2 scale rank","SCALERANK":0,"ADM2_CODE":"USA-01099","ISO_A2":"US","ADM0_SR":1,"NAME":"Monroe","SR_SOV_A3":"US1","SR_ADM0_A3":"USA","ADMIN":"United States of America","SR_GU_A3":"USA"},"bbox":[-87.35992,31.593823,-87.35992,31.593823],"geometry":{"type":"Point","coordinates":[-87.35992,31.593823]}},{"type":"Feature","properties":{"FEATURECLA":"Admin-2 scale rank","SCALERANK":0,"ADM2_CODE":"USA-01101","ISO_A2":"US","ADM0_SR":1,"NAME":"Montgomery","SR_SOV_A3":"US1","SR_ADM0_A3":"USA","ADMIN":"United States of America","SR_GU_A3":"USA"},"bbox":[-86.201346,32.23217,-86.201346,32.23217],"geometry":{"type":"Point","coordinates":[-86.201346,32.23217]}},{"type":"Feature","properties":{"FEATURECLA":"Admin-2 scale rank","SCALERANK":0,"ADM2_CODE":"USA-01103","ISO_A2":"US","ADM0_SR":1,"NAME":"Morgan","SR_SOV_A3":"US1","SR_ADM0_A3":"USA","ADMIN":"United States of America","SR_GU_A3":"USA"},"bbox":[-86.859054,34.435401,-86.859054,34.435401],"geometry":{"type":"Point","coordinates":[-86.859054,34.435401]}},{"type":"Feature","properties":{"FEATURECLA":"Admin-2 scale rank","SCALERANK":0,"ADM2_CODE":"USA-01105","ISO_A2":"US","ADM0_SR":1,"NAME":"Perry","SR_SOV_A3":"US1","SR_ADM0_A3":"USA","ADMIN":"United States of America","SR_GU_A3":"USA"},"bbox":[-87.294081,32.657621,-87.294081,32.657621],"geometry":{"type":"Point","coordinates":[-87.294081,32.657621]}},{"type":"Feature","properties":{"FEATURECLA":"Admin-2 scale rank","SCALERANK":0,"ADM2_CODE":"USA-01107","ISO_A2":"US","ADM0_SR":1,"NAME":"Pickens","SR_SOV_A3":"US1","SR_ADM0_A3":"USA","ADMIN":"United States of America","SR_GU_A3":"USA"},"bbox":[-88.085752,33.295937,-88.085752,33.295937],"geometry":{"type":"Point","coordinates":[-88.085752,33.295937]}},{"type":"Feature","properties":{"FEATURECLA":"Admin-2 scale rank","SCALERANK":0,"ADM2_CODE":"USA-01109","ISO_A2":"US","ADM0_SR":1,"NAME":"Pike","SR_SOV_A3":"US1","SR_ADM0_A3":"USA","ADMIN":"United States of America","SR_GU_A3":"USA"},"bbox":[-85.942626,31.79143,-85.942626,31.79143],"geometry":{"type":"Point","coordinates":[-85.942626,31.79143]}},{"type":"Feature","properties":{"FEATURECLA":"Admin-2 scale rank","SCALERANK":0,"ADM2_CODE":"USA-01111","ISO_A2":"US","ADM0_SR":1,"NAME":"Randolph","SR_SOV_A3":"US1","SR_ADM0_A3":"USA","ADMIN":"United States of America","SR_GU_A3":"USA"},"bbox":[-85.460512,33.301599,-85.460512,33.301599],"geometry":{"type":"Point","coordinates":[-85.460512,33.301599]}},{"type":"Feature","properties":{"FEATURECLA":"Admin-2 scale rank","SCALERANK":0,"ADM2_CODE":"USA-01113","ISO_A2":"US","ADM0_SR":1,"NAME":"Russell","SR_SOV_A3":"US1","SR_ADM0_A3":"USA","ADMIN":"United States of America","SR_GU_A3":"USA"},"bbox":[-85.178413,32.296973,-85.178413,32.296973],"geometry":{"type":"Point","coordinates":[-85.178413,32.296973]}},{"type":"Feature","properties":{"FEATURECLA":"Admin-2 scale rank","SCALERANK":0,"ADM2_CODE":"USA-01115","ISO_A2":"US","ADM0_SR":1,"NAME":"Saint Clair","SR_SOV_A3":"US1","SR_ADM0_A3":"USA","ADMIN":"United States of America","SR_GU_A3":"USA"},"bbox":[-86.35973,33.671455,-86.35973,33.671455],"geometry":{"type":"Point","coordinates":[-86.35973,33.671455]}},{"type":"Feature","properties":{"FEATURECLA":"Admin-2 scale rank","SCALERANK":0,"ADM2_CODE":"USA-01117","ISO_A2":"US","ADM0_SR":1,"NAME":"Shelby","SR_SOV_A3":"US1","SR_ADM0_A3":"USA","ADMIN":"United States of America","SR_GU_A3":"USA"},"bbox":[-86.658339,33.252782,-86.658339,33.252782],"geometry":{"type":"Point","coordinates":[-86.658339,33.252782]}},{"type":"Feature","properties":{"FEATURECLA":"Admin-2 scale rank","SCALERANK":0,"ADM2_CODE":"USA-01119","ISO_A2":"US","ADM0_SR":1,"NAME":"Sumter","SR_SOV_A3":"US1","SR_ADM0_A3":"USA","ADMIN":"United States of America","SR_GU_A3":"USA"},"bbox":[-88.220614,32.53127,-88.220614,32.53127],"geometry":{"type":"Point","coordinates":[-88.220614,32.53127]}},{"type":"Feature","properties":{"FEATURECLA":"Admin-2 scale rank","SCALERANK":0,"ADM2_CODE":"USA-01121","ISO_A2":"US","ADM0_SR":1,"NAME":"Talladega","SR_SOV_A3":"US1","SR_ADM0_A3":"USA","ADMIN":"United States of America","SR_GU_A3":"USA"},"bbox":[-86.103935,33.439549,-86.103935,33.439549],"geometry":{"type":"Point","coordinates":[-86.103935,33.439549]}},{"type":"Feature","properties":{"FEATURECLA":"Admin-2 scale rank","SCALERANK":0,"ADM2_CODE":"USA-01123","ISO_A2":"US","ADM0_SR":1,"NAME":"Tallapoosa","SR_SOV_A3":"US1","SR_ADM0_A3":"USA","ADMIN":"United States of America","SR_GU_A3":"USA"},"bbox":[-85.781964,32.902306,-85.781964,32.902306],"geometry":{"type":"Point","coordinates":[-85.781964,32.902306]}},{"type":"Feature","properties":{"FEATURECLA":"Admin-2 scale rank","SCALERANK":0,"ADM2_CODE":"USA-01125","ISO_A2":"US","ADM0_SR":1,"NAME":"Tuscaloosa","SR_SOV_A3":"US1","SR_ADM0_A3":"USA","ADMIN":"United States of America","SR_GU_A3":"USA"},"bbox":[-87.533433,33.282671,-87.533433,33.282671],"geometry":{"type":"Point","coordinates":[-87.533433,33.282671]}},{"type":"Feature","properties":{"FEATURECLA":"Admin-2 scale rank","SCALERANK":0,"ADM2_CODE":"USA-01127","ISO_A2":"US","ADM0_SR":1,"NAME":"Walker","SR_SOV_A3":"US1","SR_ADM0_A3":"USA","ADMIN":"United States of America","SR_GU_A3":"USA"},"bbox":[-87.266365,33.805715,-87.266365,33.805715],"geometry":{"type":"Point","coordinates":[-87.266365,33.805715]}},{"type":"Feature","properties":{"FEATURECLA":"Admin-2 scale rank","SCALERANK":0,"ADM2_CODE":"USA-01129","ISO_A2":"US","ADM0_SR":1,"NAME":"Washington","SR_SOV_A3":"US1","SR_ADM0_A3":"USA","ADMIN":"United States of America","SR_GU_A3":"USA"},"bbox":[-88.219079,31.405085,-88.219079,31.405085],"geometry":{"type":"Point","coordinates":[-88.219079,31.405085]}},{"type":"Feature","properties":{"FEATURECLA":"Admin-2 scale rank","SCALERANK":0,"ADM2_CODE":"USA-01131","ISO_A2":"US","ADM0_SR":1,"NAME":"Wilcox","SR_SOV_A3":"US1","SR_ADM0_A3":"USA","ADMIN":"United States of America","SR_GU_A3":"USA"},"bbox":[-87.397057,32.009763,-87.397057,32.009763],"geometry":{"type":"Point","coordinates":[-87.397057,32.009763]}},{"type":"Feature","properties":{"FEATURECLA":"Admin-2 scale rank","SCALERANK":0,"ADM2_CODE":"USA-01133","ISO_A2":"US","ADM0_SR":1,"NAME":"Winston","SR_SOV_A3":"US1","SR_ADM0_A3":"USA","ADMIN":"United States of America","SR_GU_A3":"USA"},"bbox":[-87.373899,34.14822,-87.373899,34.14822],"geometry":{"type":"Point","coordinates":[-87.373899,34.14822]}},{"type":"Feature","properties":{"FEATURECLA":"Admin-2 scale rank","SCALERANK":0,"ADM2_CODE":"USA-02068","ISO_A2":"US","ADM0_SR":1,"NAME":"Denali","SR_SOV_A3":"US1","SR_ADM0_A3":"USA","ADMIN":"United States of America","SR_GU_A3":"USA"},"bbox":[-150.251317,63.765281,-150.251317,63.765281],"geometry":{"type":"Point","coordinates":[-150.251317,63.765281]}},{"type":"Feature","properties":{"FEATURECLA":"Admin-2 scale rank","SCALERANK":0,"ADM2_CODE":"USA-02090","ISO_A2":"US","ADM0_SR":1,"NAME":"Fairbanks North Star","SR_SOV_A3":"US1","SR_ADM0_A3":"USA","ADMIN":"United States of America","SR_GU_A3":"USA"},"bbox":[-146.556895,64.807866,-146.556895,64.807866],"geometry":{"type":"Point","coordinates":[-146.556895,64.807866]}},{"type":"Feature","properties":{"FEATURECLA":"Admin-2 scale rank","SCALERANK":0,"ADM2_CODE":"USA-02170","ISO_A2":"US","ADM0_SR":1,"NAME":"Matanuska-Susitna","SR_SOV_A3":"US1","SR_ADM0_A3":"USA","ADMIN":"United States of America","SR_GU_A3":"USA"},"bbox":[-149.509085,62.413186,-149.509085,62.413186],"geometry":{"type":"Point","coordinates":[-149.509085,62.413186]}},{"type":"Feature","properties":{"FEATURECLA":"Admin-2 scale rank","SCALERANK":0,"ADM2_CODE":"USA-02240","ISO_A2":"US","ADM0_SR":1,"NAME":"Southeast Fairbanks","SR_SOV_A3":"US1","SR_ADM0_A3":"USA","ADMIN":"United States of America","SR_GU_A3":"USA"},"bbox":[-142.406831,64.055005,-142.406831,64.055005],"geometry":{"type":"Point","coordinates":[-142.406831,64.055005]}},{"type":"Feature","properties":{"FEATURECLA":"Admin-2 scale rank","SCALERANK":0,"ADM2_CODE":"USA-02290","ISO_A2":"US","ADM0_SR":1,"NAME":"Yukon-Koyukuk","SR_SOV_A3":"US1","SR_ADM0_A3":"USA","ADMIN":"United States of America","SR_GU_A3":"USA"},"bbox":[-152.229815,65.913289,-152.229815,65.913289],"geometry":{"type":"Point","coordinates":[-152.229815,65.913289]}},{"type":"Feature","properties":{"FEATURECLA":"Admin-2 scale rank","SCALERANK":0,"ADM2_CODE":"USA-04001","ISO_A2":"US","ADM0_SR":1,"NAME":"Apache","SR_SOV_A3":"US1","SR_ADM0_A3":"USA","ADMIN":"United States of America","SR_GU_A3":"USA"},"bbox":[-109.450927,35.399723,-109.450927,35.399723],"geometry":{"type":"Point","coordinates":[-109.450927,35.399723]}},{"type":"Feature","properties":{"FEATURECLA":"Admin-2 scale rank","SCALERANK":0,"ADM2_CODE":"USA-04003","ISO_A2":"US","ADM0_SR":1,"NAME":"Cochise","SR_SOV_A3":"US1","SR_ADM0_A3":"USA","ADMIN":"United States of America","SR_GU_A3":"USA"},"bbox":[-109.75058,31.877188,-109.75058,31.877188],"geometry":{"type":"Point","coordinates":[-109.75058,31.877188]}},{"type":"Feature","properties":{"FEATURECLA":"Admin-2 scale rank","SCALERANK":0,"ADM2_CODE":"USA-04005","ISO_A2":"US","ADM0_SR":1,"NAME":"Coconino","SR_SOV_A3":"US1","SR_ADM0_A3":"USA","ADMIN":"United States of America","SR_GU_A3":"USA"},"bbox":[-111.744605,35.976691,-111.744605,35.976691],"geometry":{"type":"Point","coordinates":[-111.744605,35.976691]}},{"type":"Feature","properties":{"FEATURECLA":"Admin-2 scale rank","SCALERANK":0,"ADM2_CODE":"USA-04007","ISO_A2":"US","ADM0_SR":1,"NAME":"Gila","SR_SOV_A3":"US1","SR_ADM0_A3":"USA","ADMIN":"United States of America","SR_GU_A3":"USA"},"bbox":[-110.727775,33.632337,-110.727775,33.632337],"geometry":{"type":"Point","coordinates":[-110.727775,33.632337]}},{"type":"Feature","properties":{"FEATURECLA":"Admin-2 scale rank","SCALERANK":0,"ADM2_CODE":"USA-04009","ISO_A2":"US","ADM0_SR":1,"NAME":"Graham","SR_SOV_A3":"US1","SR_ADM0_A3":"USA","ADMIN":"United States of America","SR_GU_A3":"USA"},"bbox":[-109.952329,32.934141,-109.952329,32.934141],"geometry":{"type":"Point","coordinates":[-109.952329,32.934141]}},{"type":"Feature","properties":{"FEATURECLA":"Admin-2 scale rank","SCALERANK":0,"ADM2_CODE":"USA-04011","ISO_A2":"US","ADM0_SR":1,"NAME":"Greenlee","SR_SOV_A3":"US1","SR_ADM0_A3":"USA","ADMIN":"United States of America","SR_GU_A3":"USA"},"bbox":[-109.269098,33.221996,-109.269098,33.221996],"geometry":{"type":"Point","coordinates":[-109.269098,33.221996]}},{"type":"Feature","properties":{"FEATURECLA":"Admin-2 scale rank","SCALERANK":0,"ADM2_CODE":"USA-04012","ISO_A2":"US","ADM0_SR":1,"NAME":"La Paz","SR_SOV_A3":"US1","SR_ADM0_A3":"USA","ADMIN":"United States of America","SR_GU_A3":"USA"},"bbox":[-113.989651,33.871288,-113.989651,33.871288],"geometry":{"type":"Point","coordinates":[-113.989651,33.871288]}},{"type":"Feature","properties":{"FEATURECLA":"Admin-2 scale rank","SCALERANK":0,"ADM2_CODE":"USA-04013","ISO_A2":"US","ADM0_SR":1,"NAME":"Maricopa","SR_SOV_A3":"US1","SR_ADM0_A3":"USA","ADMIN":"United States of America","SR_GU_A3":"USA"},"bbox":[-112.742011,33.383317,-112.742011,33.383317],"geometry":{"type":"Point","coordinates":[-112.742011,33.383317]}},{"type":"Feature","properties":{"FEATURECLA":"Admin-2 scale rank","SCALERANK":0,"ADM2_CODE":"USA-04015","ISO_A2":"US","ADM0_SR":1,"NAME":"Mohave","SR_SOV_A3":"US1","SR_ADM0_A3":"USA","ADMIN":"United States of America","SR_GU_A3":"USA"},"bbox":[-113.953724,35.443888,-113.953724,35.443888],"geometry":{"type":"Point","coordinates":[-113.953724,35.443888]}},{"type":"Feature","properties":{"FEATURECLA":"Admin-2 scale rank","SCALERANK":0,"ADM2_CODE":"USA-04017","ISO_A2":"US","ADM0_SR":1,"NAME":"Navajo","SR_SOV_A3":"US1","SR_ADM0_A3":"USA","ADMIN":"United States of America","SR_GU_A3":"USA"},"bbox":[-110.311879,35.341986,-110.311879,35.341986],"geometry":{"type":"Point","coordinates":[-110.311879,35.341986]}},{"type":"Feature","properties":{"FEATURECLA":"Admin-2 scale rank","SCALERANK":0,"ADM2_CODE":"USA-04019","ISO_A2":"US","ADM0_SR":1,"NAME":"Pima","SR_SOV_A3":"US1","SR_ADM0_A3":"USA","ADMIN":"United States of America","SR_GU_A3":"USA"},"bbox":[-111.673587,32.016655,-111.673587,32.016655],"geometry":{"type":"Point","coordinates":[-111.673587,32.016655]}},{"type":"Feature","properties":{"FEATURECLA":"Admin-2 scale rank","SCALERANK":0,"ADM2_CODE":"USA-04021","ISO_A2":"US","ADM0_SR":1,"NAME":"Pinal","SR_SOV_A3":"US1","SR_ADM0_A3":"USA","ADMIN":"United States of America","SR_GU_A3":"USA"},"bbox":[-111.342704,32.88322,-111.342704,32.88322],"geometry":{"type":"Point","coordinates":[-111.342704,32.88322]}},{"type":"Feature","properties":{"FEATURECLA":"Admin-2 scale rank","SCALERANK":0,"ADM2_CODE":"USA-04023","ISO_A2":"US","ADM0_SR":1,"NAME":"Santa Cruz","SR_SOV_A3":"US1","SR_ADM0_A3":"USA","ADMIN":"United States of America","SR_GU_A3":"USA"},"bbox":[-110.8445,31.527005,-110.8445,31.527005],"geometry":{"type":"Point","coordinates":[-110.8445,31.527005]}},{"type":"Feature","properties":{"FEATURECLA":"Admin-2 scale rank","SCALERANK":0,"ADM2_CODE":"USA-04025","ISO_A2":"US","ADM0_SR":1,"NAME":"Yavapai","SR_SOV_A3":"US1","SR_ADM0_A3":"USA","ADMIN":"United States of America","SR_GU_A3":"USA"},"bbox":[-112.629729,34.527277,-112.629729,34.527277],"geometry":{"type":"Point","coordinates":[-112.629729,34.527277]}},{"type":"Feature","properties":{"FEATURECLA":"Admin-2 scale rank","SCALERANK":0,"ADM2_CODE":"USA-04027","ISO_A2":"US","ADM0_SR":1,"NAME":"Yuma","SR_SOV_A3":"US1","SR_ADM0_A3":"USA","ADMIN":"United States of America","SR_GU_A3":"USA"},"bbox":[-113.843774,32.745245,-113.843774,32.745245],"geometry":{"type":"Point","coordinates":[-113.843774,32.745245]}},{"type":"Feature","properties":{"FEATURECLA":"Admin-2 scale rank","SCALERANK":0,"ADM2_CODE":"USA-05001","ISO_A2":"US","ADM0_SR":1,"NAME":"Arkansas","SR_SOV_A3":"US1","SR_ADM0_A3":"USA","ADMIN":"United States of America","SR_GU_A3":"USA"},"bbox":[-91.34806,34.302099,-91.34806,34.302099],"geometry":{"type":"Point","coordinates":[-91.34806,34.302099]}},{"type":"Feature","properties":{"FEATURECLA":"Admin-2 scale rank","SCALERANK":0,"ADM2_CODE":"USA-05003","ISO_A2":"US","ADM0_SR":1,"NAME":"Ashley","SR_SOV_A3":"US1","SR_ADM0_A3":"USA","ADMIN":"United States of America","SR_GU_A3":"USA"},"bbox":[-91.770181,33.203426,-91.770181,33.203426],"geometry":{"type":"Point","coordinates":[-91.770181,33.203426]}},{"type":"Feature","properties":{"FEATURECLA":"Admin-2 scale rank","SCALERANK":0,"ADM2_CODE":"USA-05005","ISO_A2":"US","ADM0_SR":1,"NAME":"Baxter","SR_SOV_A3":"US1","SR_ADM0_A3":"USA","ADMIN":"United States of America","SR_GU_A3":"USA"},"bbox":[-92.319134,36.299949,-92.319134,36.299949],"geometry":{"type":"Point","coordinates":[-92.319134,36.299949]}},{"type":"Feature","properties":{"FEATURECLA":"Admin-2 scale rank","SCALERANK":0,"ADM2_CODE":"USA-05007","ISO_A2":"US","ADM0_SR":1,"NAME":"Benton","SR_SOV_A3":"US1","SR_ADM0_A3":"USA","ADMIN":"United States of America","SR_GU_A3":"USA"},"bbox":[-94.25653,36.356342,-94.25653,36.356342],"geometry":{"type":"Point","coordinates":[-94.25653,36.356342]}},{"type":"Feature","properties":{"FEATURECLA":"Admin-2 scale rank","SCALERANK":0,"ADM2_CODE":"USA-05009","ISO_A2":"US","ADM0_SR":1,"NAME":"Boone","SR_SOV_A3":"US1","SR_ADM0_A3":"USA","ADMIN":"United States of America","SR_GU_A3":"USA"},"bbox":[-93.088926,36.309524,-93.088926,36.309524],"geometry":{"type":"Point","coordinates":[-93.088926,36.309524]}},{"type":"Feature","properties":{"FEATURECLA":"Admin-2 scale rank","SCALERANK":0,"ADM2_CODE":"USA-05011","ISO_A2":"US","ADM0_SR":1,"NAME":"Bradley","SR_SOV_A3":"US1","SR_ADM0_A3":"USA","ADMIN":"United States of America","SR_GU_A3":"USA"},"bbox":[-92.163034,33.476545,-92.163034,33.476545],"geometry":{"type":"Point","coordinates":[-92.163034,33.476545]}},{"type":"Feature","properties":{"FEATURECLA":"Admin-2 scale rank","SCALERANK":0,"ADM2_CODE":"USA-05015","ISO_A2":"US","ADM0_SR":1,"NAME":"Carroll","SR_SOV_A3":"US1","SR_ADM0_A3":"USA","ADMIN":"United States of America","SR_GU_A3":"USA"},"bbox":[-93.474128,36.329445,-93.474128,36.329445],"geometry":{"type":"Point","coordinates":[-93.474128,36.329445]}},{"type":"Feature","properties":{"FEATURECLA":"Admin-2 scale rank","SCALERANK":0,"ADM2_CODE":"USA-05017","ISO_A2":"US","ADM0_SR":1,"NAME":"Chicot","SR_SOV_A3":"US1","SR_ADM0_A3":"USA","ADMIN":"United States of America","SR_GU_A3":"USA"},"bbox":[-91.314375,33.255469,-91.314375,33.255469],"geometry":{"type":"Point","coordinates":[-91.314375,33.255469]}},{"type":"Feature","properties":{"FEATURECLA":"Admin-2 scale rank","SCALERANK":0,"ADM2_CODE":"USA-05019","ISO_A2":"US","ADM0_SR":1,"NAME":"Clark","SR_SOV_A3":"US1","SR_ADM0_A3":"USA","ADMIN":"United States of America","SR_GU_A3":"USA"},"bbox":[-93.18182,34.042941,-93.18182,34.042941],"geometry":{"type":"Point","coordinates":[-93.18182,34.042941]}},{"type":"Feature","properties":{"FEATURECLA":"Admin-2 scale rank","SCALERANK":0,"ADM2_CODE":"USA-05021","ISO_A2":"US","ADM0_SR":1,"NAME":"Clay","SR_SOV_A3":"US1","SR_ADM0_A3":"USA","ADMIN":"United States of America","SR_GU_A3":"USA"},"bbox":[-90.416118,36.379764,-90.416118,36.379764],"geometry":{"type":"Point","coordinates":[-90.416118,36.379764]}},{"type":"Feature","properties":{"FEATURECLA":"Admin-2 scale rank","SCALERANK":0,"ADM2_CODE":"USA-05023","ISO_A2":"US","ADM0_SR":1,"NAME":"Cleburne","SR_SOV_A3":"US1","SR_ADM0_A3":"USA","ADMIN":"United States of America","SR_GU_A3":"USA"},"bbox":[-92.027066,35.533946,-92.027066,35.533946],"geometry":{"type":"Point","coordinates":[-92.027066,35.533946]}},{"type":"Feature","properties":{"FEATURECLA":"Admin-2 scale rank","SCALERANK":0,"ADM2_CODE":"USA-05025","ISO_A2":"US","ADM0_SR":1,"NAME":"Cleveland","SR_SOV_A3":"US1","SR_ADM0_A3":"USA","ADMIN":"United States of America","SR_GU_A3":"USA"},"bbox":[-92.164032,33.884132,-92.164032,33.884132],"geometry":{"type":"Point","coordinates":[-92.164032,33.884132]}},{"type":"Feature","properties":{"FEATURECLA":"Admin-2 scale rank","SCALERANK":0,"ADM2_CODE":"USA-05027","ISO_A2":"US","ADM0_SR":1,"NAME":"Columbia","SR_SOV_A3":"US1","SR_ADM0_A3":"USA","ADMIN":"United States of America","SR_GU_A3":"USA"},"bbox":[-93.230924,33.216106,-93.230924,33.216106],"geometry":{"type":"Point","coordinates":[-93.230924,33.216106]}},{"type":"Feature","properties":{"FEATURECLA":"Admin-2 scale rank","SCALERANK":0,"ADM2_CODE":"USA-05029","ISO_A2":"US","ADM0_SR":1,"NAME":"Conway","SR_SOV_A3":"US1","SR_ADM0_A3":"USA","ADMIN":"United States of America","SR_GU_A3":"USA"},"bbox":[-92.68573,35.28433,-92.68573,35.28433],"geometry":{"type":"Point","coordinates":[-92.68573,35.28433]}},{"type":"Feature","properties":{"FEATURECLA":"Admin-2 scale rank","SCALERANK":0,"ADM2_CODE":"USA-05031","ISO_A2":"US","ADM0_SR":1,"NAME":"Craighead","SR_SOV_A3":"US1","SR_ADM0_A3":"USA","ADMIN":"United States of America","SR_GU_A3":"USA"},"bbox":[-90.634387,35.835166,-90.634387,35.835166],"geometry":{"type":"Point","coordinates":[-90.634387,35.835166]}},{"type":"Feature","properties":{"FEATURECLA":"Admin-2 scale rank","SCALERANK":0,"ADM2_CODE":"USA-05033","ISO_A2":"US","ADM0_SR":1,"NAME":"Crawford","SR_SOV_A3":"US1","SR_ADM0_A3":"USA","ADMIN":"United States of America","SR_GU_A3":"USA"},"bbox":[-94.248528,35.588497,-94.248528,35.588497],"geometry":{"type":"Point","coordinates":[-94.248528,35.588497]}},{"type":"Feature","properties":{"FEATURECLA":"Admin-2 scale rank","SCALERANK":0,"ADM2_CODE":"USA-05035","ISO_A2":"US","ADM0_SR":1,"NAME":"Crittenden","SR_SOV_A3":"US1","SR_ADM0_A3":"USA","ADMIN":"United States of America","SR_GU_A3":"USA"},"bbox":[-90.28206,35.267568,-90.28206,35.267568],"geometry":{"type":"Point","coordinates":[-90.28206,35.267568]}},{"type":"Feature","properties":{"FEATURECLA":"Admin-2 scale rank","SCALERANK":0,"ADM2_CODE":"USA-05037","ISO_A2":"US","ADM0_SR":1,"NAME":"Cross","SR_SOV_A3":"US1","SR_ADM0_A3":"USA","ADMIN":"United States of America","SR_GU_A3":"USA"},"bbox":[-90.771496,35.296801,-90.771496,35.296801],"geometry":{"type":"Point","coordinates":[-90.771496,35.296801]}},{"type":"Feature","properties":{"FEATURECLA":"Admin-2 scale rank","SCALERANK":0,"ADM2_CODE":"USA-05039","ISO_A2":"US","ADM0_SR":1,"NAME":"Dallas","SR_SOV_A3":"US1","SR_ADM0_A3":"USA","ADMIN":"United States of America","SR_GU_A3":"USA"},"bbox":[-92.648494,33.97637,-92.648494,33.97637],"geometry":{"type":"Point","coordinates":[-92.648494,33.97637]}},{"type":"Feature","properties":{"FEATURECLA":"Admin-2 scale rank","SCALERANK":0,"ADM2_CODE":"USA-05041","ISO_A2":"US","ADM0_SR":1,"NAME":"Desha","SR_SOV_A3":"US1","SR_ADM0_A3":"USA","ADMIN":"United States of America","SR_GU_A3":"USA"},"bbox":[-91.267245,33.830513,-91.267245,33.830513],"geometry":{"type":"Point","coordinates":[-91.267245,33.830513]}},{"type":"Feature","properties":{"FEATURECLA":"Admin-2 scale rank","SCALERANK":0,"ADM2_CODE":"USA-05043","ISO_A2":"US","ADM0_SR":1,"NAME":"Drew","SR_SOV_A3":"US1","SR_ADM0_A3":"USA","ADMIN":"United States of America","SR_GU_A3":"USA"},"bbox":[-91.719536,33.592664,-91.719536,33.592664],"geometry":{"type":"Point","coordinates":[-91.719536,33.592664]}},{"type":"Feature","properties":{"FEATURECLA":"Admin-2 scale rank","SCALERANK":0,"ADM2_CODE":"USA-05045","ISO_A2":"US","ADM0_SR":1,"NAME":"Faulkner","SR_SOV_A3":"US1","SR_ADM0_A3":"USA","ADMIN":"United States of America","SR_GU_A3":"USA"},"bbox":[-92.324319,35.161003,-92.324319,35.161003],"geometry":{"type":"Point","coordinates":[-92.324319,35.161003]}},{"type":"Feature","properties":{"FEATURECLA":"Admin-2 scale rank","SCALERANK":0,"ADM2_CODE":"USA-05047","ISO_A2":"US","ADM0_SR":1,"NAME":"Franklin","SR_SOV_A3":"US1","SR_ADM0_A3":"USA","ADMIN":"United States of America","SR_GU_A3":"USA"},"bbox":[-93.857532,35.566273,-93.857532,35.566273],"geometry":{"type":"Point","coordinates":[-93.857532,35.566273]}},{"type":"Feature","properties":{"FEATURECLA":"Admin-2 scale rank","SCALERANK":0,"ADM2_CODE":"USA-05049","ISO_A2":"US","ADM0_SR":1,"NAME":"Fulton","SR_SOV_A3":"US1","SR_ADM0_A3":"USA","ADMIN":"United States of America","SR_GU_A3":"USA"},"bbox":[-91.81818,36.377408,-91.81818,36.377408],"geometry":{"type":"Point","coordinates":[-91.81818,36.377408]}},{"type":"Feature","properties":{"FEATURECLA":"Admin-2 scale rank","SCALERANK":0,"ADM2_CODE":"USA-05051","ISO_A2":"US","ADM0_SR":1,"NAME":"Garland","SR_SOV_A3":"US1","SR_ADM0_A3":"USA","ADMIN":"United States of America","SR_GU_A3":"USA"},"bbox":[-93.175258,34.582488,-93.175258,34.582488],"geometry":{"type":"Point","coordinates":[-93.175258,34.582488]}},{"type":"Feature","properties":{"FEATURECLA":"Admin-2 scale rank","SCALERANK":0,"ADM2_CODE":"USA-05053","ISO_A2":"US","ADM0_SR":1,"NAME":"Grant","SR_SOV_A3":"US1","SR_ADM0_A3":"USA","ADMIN":"United States of America","SR_GU_A3":"USA"},"bbox":[-92.424317,34.294576,-92.424317,34.294576],"geometry":{"type":"Point","coordinates":[-92.424317,34.294576]}},{"type":"Feature","properties":{"FEATURECLA":"Admin-2 scale rank","SCALERANK":0,"ADM2_CODE":"USA-05055","ISO_A2":"US","ADM0_SR":1,"NAME":"Greene","SR_SOV_A3":"US1","SR_ADM0_A3":"USA","ADMIN":"United States of America","SR_GU_A3":"USA"},"bbox":[-90.565885,36.114113,-90.565885,36.114113],"geometry":{"type":"Point","coordinates":[-90.565885,36.114113]}},{"type":"Feature","properties":{"FEATURECLA":"Admin-2 scale rank","SCALERANK":0,"ADM2_CODE":"USA-05057","ISO_A2":"US","ADM0_SR":1,"NAME":"Hempstead","SR_SOV_A3":"US1","SR_ADM0_A3":"USA","ADMIN":"United States of America","SR_GU_A3":"USA"},"bbox":[-93.662175,33.730245,-93.662175,33.730245],"geometry":{"type":"Point","coordinates":[-93.662175,33.730245]}},{"type":"Feature","properties":{"FEATURECLA":"Admin-2 scale rank","SCALERANK":0,"ADM2_CODE":"USA-05059","ISO_A2":"US","ADM0_SR":1,"NAME":"Hot Spring","SR_SOV_A3":"US1","SR_ADM0_A3":"USA","ADMIN":"United States of America","SR_GU_A3":"USA"},"bbox":[-92.865055,34.287603,-92.865055,34.287603],"geometry":{"type":"Point","coordinates":[-92.865055,34.287603]}},{"type":"Feature","properties":{"FEATURECLA":"Admin-2 scale rank","SCALERANK":0,"ADM2_CODE":"USA-05061","ISO_A2":"US","ADM0_SR":1,"NAME":"Howard","SR_SOV_A3":"US1","SR_ADM0_A3":"USA","ADMIN":"United States of America","SR_GU_A3":"USA"},"bbox":[-93.95398,34.060562,-93.95398,34.060562],"geometry":{"type":"Point","coordinates":[-93.95398,34.060562]}},{"type":"Feature","properties":{"FEATURECLA":"Admin-2 scale rank","SCALERANK":0,"ADM2_CODE":"USA-05063","ISO_A2":"US","ADM0_SR":1,"NAME":"Independence","SR_SOV_A3":"US1","SR_ADM0_A3":"USA","ADMIN":"United States of America","SR_GU_A3":"USA"},"bbox":[-91.582495,35.734526,-91.582495,35.734526],"geometry":{"type":"Point","coordinates":[-91.582495,35.734526]}},{"type":"Feature","properties":{"FEATURECLA":"Admin-2 scale rank","SCALERANK":0,"ADM2_CODE":"USA-05065","ISO_A2":"US","ADM0_SR":1,"NAME":"Izard","SR_SOV_A3":"US1","SR_ADM0_A3":"USA","ADMIN":"United States of America","SR_GU_A3":"USA"},"bbox":[-91.891652,36.085048,-91.891652,36.085048],"geometry":{"type":"Point","coordinates":[-91.891652,36.085048]}},{"type":"Feature","properties":{"FEATURECLA":"Admin-2 scale rank","SCALERANK":0,"ADM2_CODE":"USA-05067","ISO_A2":"US","ADM0_SR":1,"NAME":"Jackson","SR_SOV_A3":"US1","SR_ADM0_A3":"USA","ADMIN":"United States of America","SR_GU_A3":"USA"},"bbox":[-91.189476,35.598366,-91.189476,35.598366],"geometry":{"type":"Point","coordinates":[-91.189476,35.598366]}},{"type":"Feature","properties":{"FEATURECLA":"Admin-2 scale rank","SCALERANK":0,"ADM2_CODE":"USA-05069","ISO_A2":"US","ADM0_SR":1,"NAME":"Jefferson","SR_SOV_A3":"US1","SR_ADM0_A3":"USA","ADMIN":"United States of America","SR_GU_A3":"USA"},"bbox":[-91.934695,34.290802,-91.934695,34.290802],"geometry":{"type":"Point","coordinates":[-91.934695,34.290802]}},{"type":"Feature","properties":{"FEATURECLA":"Admin-2 scale rank","SCALERANK":0,"ADM2_CODE":"USA-05071","ISO_A2":"US","ADM0_SR":1,"NAME":"Johnson","SR_SOV_A3":"US1","SR_ADM0_A3":"USA","ADMIN":"United States of America","SR_GU_A3":"USA"},"bbox":[-93.459901,35.580216,-93.459901,35.580216],"geometry":{"type":"Point","coordinates":[-93.459901,35.580216]}},{"type":"Feature","properties":{"FEATURECLA":"Admin-2 scale rank","SCALERANK":0,"ADM2_CODE":"USA-05073","ISO_A2":"US","ADM0_SR":1,"NAME":"Lafayette","SR_SOV_A3":"US1","SR_ADM0_A3":"USA","ADMIN":"United States of America","SR_GU_A3":"USA"},"bbox":[-93.607125,33.201691,-93.607125,33.201691],"geometry":{"type":"Point","coordinates":[-93.607125,33.201691]}},{"type":"Feature","properties":{"FEATURECLA":"Admin-2 scale rank","SCALERANK":0,"ADM2_CODE":"USA-05075","ISO_A2":"US","ADM0_SR":1,"NAME":"Lawrence","SR_SOV_A3":"US1","SR_ADM0_A3":"USA","ADMIN":"United States of America","SR_GU_A3":"USA"},"bbox":[-91.146474,36.017096,-91.146474,36.017096],"geometry":{"type":"Point","coordinates":[-91.146474,36.017096]}},{"type":"Feature","properties":{"FEATURECLA":"Admin-2 scale rank","SCALERANK":0,"ADM2_CODE":"USA-05077","ISO_A2":"US","ADM0_SR":1,"NAME":"Lee","SR_SOV_A3":"US1","SR_ADM0_A3":"USA","ADMIN":"United States of America","SR_GU_A3":"USA"},"bbox":[-90.784394,34.774009,-90.784394,34.774009],"geometry":{"type":"Point","coordinates":[-90.784394,34.774009]}},{"type":"Feature","properties":{"FEATURECLA":"Admin-2 scale rank","SCALERANK":0,"ADM2_CODE":"USA-05079","ISO_A2":"US","ADM0_SR":1,"NAME":"Lincoln","SR_SOV_A3":"US1","SR_ADM0_A3":"USA","ADMIN":"United States of America","SR_GU_A3":"USA"},"bbox":[-91.731545,33.928635,-91.731545,33.928635],"geometry":{"type":"Point","coordinates":[-91.731545,33.928635]}},{"type":"Feature","properties":{"FEATURECLA":"Admin-2 scale rank","SCALERANK":0,"ADM2_CODE":"USA-05081","ISO_A2":"US","ADM0_SR":1,"NAME":"Little River","SR_SOV_A3":"US1","SR_ADM0_A3":"USA","ADMIN":"United States of America","SR_GU_A3":"USA"},"bbox":[-94.237395,33.708308,-94.237395,33.708308],"geometry":{"type":"Point","coordinates":[-94.237395,33.708308]}},{"type":"Feature","properties":{"FEATURECLA":"Admin-2 scale rank","SCALERANK":0,"ADM2_CODE":"USA-05083","ISO_A2":"US","ADM0_SR":1,"NAME":"Logan","SR_SOV_A3":"US1","SR_ADM0_A3":"USA","ADMIN":"United States of America","SR_GU_A3":"USA"},"bbox":[-93.643287,35.269174,-93.643287,35.269174],"geometry":{"type":"Point","coordinates":[-93.643287,35.269174]}},{"type":"Feature","properties":{"FEATURECLA":"Admin-2 scale rank","SCALERANK":0,"ADM2_CODE":"USA-05085","ISO_A2":"US","ADM0_SR":1,"NAME":"Lonoke","SR_SOV_A3":"US1","SR_ADM0_A3":"USA","ADMIN":"United States of America","SR_GU_A3":"USA"},"bbox":[-91.888711,34.756635,-91.888711,34.756635],"geometry":{"type":"Point","coordinates":[-91.888711,34.756635]}},{"type":"Feature","properties":{"FEATURECLA":"Admin-2 scale rank","SCALERANK":0,"ADM2_CODE":"USA-05087","ISO_A2":"US","ADM0_SR":1,"NAME":"Madison","SR_SOV_A3":"US1","SR_ADM0_A3":"USA","ADMIN":"United States of America","SR_GU_A3":"USA"},"bbox":[-93.729633,35.992403,-93.729633,35.992403],"geometry":{"type":"Point","coordinates":[-93.729633,35.992403]}},{"type":"Feature","properties":{"FEATURECLA":"Admin-2 scale rank","SCALERANK":0,"ADM2_CODE":"USA-05089","ISO_A2":"US","ADM0_SR":1,"NAME":"Marion","SR_SOV_A3":"US1","SR_ADM0_A3":"USA","ADMIN":"United States of America","SR_GU_A3":"USA"},"bbox":[-92.726167,36.242364,-92.726167,36.242364],"geometry":{"type":"Point","coordinates":[-92.726167,36.242364]}},{"type":"Feature","properties":{"FEATURECLA":"Admin-2 scale rank","SCALERANK":0,"ADM2_CODE":"USA-05091","ISO_A2":"US","ADM0_SR":1,"NAME":"Miller","SR_SOV_A3":"US1","SR_ADM0_A3":"USA","ADMIN":"United States of America","SR_GU_A3":"USA"},"bbox":[-93.892394,33.30893,-93.892394,33.30893],"geometry":{"type":"Point","coordinates":[-93.892394,33.30893]}},{"type":"Feature","properties":{"FEATURECLA":"Admin-2 scale rank","SCALERANK":0,"ADM2_CODE":"USA-05093","ISO_A2":"US","ADM0_SR":1,"NAME":"Mississippi","SR_SOV_A3":"US1","SR_ADM0_A3":"USA","ADMIN":"United States of America","SR_GU_A3":"USA"},"bbox":[-90.115717,35.777317,-90.115717,35.777317],"geometry":{"type":"Point","coordinates":[-90.115717,35.777317]}},{"type":"Feature","properties":{"FEATURECLA":"Admin-2 scale rank","SCALERANK":0,"ADM2_CODE":"USA-05095","ISO_A2":"US","ADM0_SR":1,"NAME":"Monroe","SR_SOV_A3":"US1","SR_ADM0_A3":"USA","ADMIN":"United States of America","SR_GU_A3":"USA"},"bbox":[-91.227077,34.685795,-91.227077,34.685795],"geometry":{"type":"Point","coordinates":[-91.227077,34.685795]}},{"type":"Feature","properties":{"FEATURECLA":"Admin-2 scale rank","SCALERANK":0,"ADM2_CODE":"USA-05097","ISO_A2":"US","ADM0_SR":1,"NAME":"Montgomery","SR_SOV_A3":"US1","SR_ADM0_A3":"USA","ADMIN":"United States of America","SR_GU_A3":"USA"},"bbox":[-93.659458,34.545302,-93.659458,34.545302],"geometry":{"type":"Point","coordinates":[-93.659458,34.545302]}},{"type":"Feature","properties":{"FEATURECLA":"Admin-2 scale rank","SCALERANK":0,"ADM2_CODE":"USA-05099","ISO_A2":"US","ADM0_SR":1,"NAME":"Nevada","SR_SOV_A3":"US1","SR_ADM0_A3":"USA","ADMIN":"United States of America","SR_GU_A3":"USA"},"bbox":[-93.29167,33.64502,-93.29167,33.64502],"geometry":{"type":"Point","coordinates":[-93.29167,33.64502]}},{"type":"Feature","properties":{"FEATURECLA":"Admin-2 scale rank","SCALERANK":0,"ADM2_CODE":"USA-05101","ISO_A2":"US","ADM0_SR":1,"NAME":"Newton","SR_SOV_A3":"US1","SR_ADM0_A3":"USA","ADMIN":"United States of America","SR_GU_A3":"USA"},"bbox":[-93.217782,35.924672,-93.217782,35.924672],"geometry":{"type":"Point","coordinates":[-93.217782,35.924672]}},{"type":"Feature","properties":{"FEATURECLA":"Admin-2 scale rank","SCALERANK":0,"ADM2_CODE":"USA-05103","ISO_A2":"US","ADM0_SR":1,"NAME":"Ouachita","SR_SOV_A3":"US1","SR_ADM0_A3":"USA","ADMIN":"United States of America","SR_GU_A3":"USA"},"bbox":[-92.93182,33.612693,-92.93182,33.612693],"geometry":{"type":"Point","coordinates":[-92.93182,33.612693]}},{"type":"Feature","properties":{"FEATURECLA":"Admin-2 scale rank","SCALERANK":0,"ADM2_CODE":"USA-05105","ISO_A2":"US","ADM0_SR":1,"NAME":"Perry","SR_SOV_A3":"US1","SR_ADM0_A3":"USA","ADMIN":"United States of America","SR_GU_A3":"USA"},"bbox":[-92.925867,34.966496,-92.925867,34.966496],"geometry":{"type":"Point","coordinates":[-92.925867,34.966496]}},{"type":"Feature","properties":{"FEATURECLA":"Admin-2 scale rank","SCALERANK":0,"ADM2_CODE":"USA-05107","ISO_A2":"US","ADM0_SR":1,"NAME":"Phillips","SR_SOV_A3":"US1","SR_ADM0_A3":"USA","ADMIN":"United States of America","SR_GU_A3":"USA"},"bbox":[-90.856005,34.484515,-90.856005,34.484515],"geometry":{"type":"Point","coordinates":[-90.856005,34.484515]}},{"type":"Feature","properties":{"FEATURECLA":"Admin-2 scale rank","SCALERANK":0,"ADM2_CODE":"USA-05109","ISO_A2":"US","ADM0_SR":1,"NAME":"Pike","SR_SOV_A3":"US1","SR_ADM0_A3":"USA","ADMIN":"United States of America","SR_GU_A3":"USA"},"bbox":[-93.656534,34.164313,-93.656534,34.164313],"geometry":{"type":"Point","coordinates":[-93.656534,34.164313]}},{"type":"Feature","properties":{"FEATURECLA":"Admin-2 scale rank","SCALERANK":0,"ADM2_CODE":"USA-05111","ISO_A2":"US","ADM0_SR":1,"NAME":"Poinsett","SR_SOV_A3":"US1","SR_ADM0_A3":"USA","ADMIN":"United States of America","SR_GU_A3":"USA"},"bbox":[-90.662846,35.576878,-90.662846,35.576878],"geometry":{"type":"Point","coordinates":[-90.662846,35.576878]}},{"type":"Feature","properties":{"FEATURECLA":"Admin-2 scale rank","SCALERANK":0,"ADM2_CODE":"USA-05113","ISO_A2":"US","ADM0_SR":1,"NAME":"Polk","SR_SOV_A3":"US1","SR_ADM0_A3":"USA","ADMIN":"United States of America","SR_GU_A3":"USA"},"bbox":[-94.228541,34.525382,-94.228541,34.525382],"geometry":{"type":"Point","coordinates":[-94.228541,34.525382]}},{"type":"Feature","properties":{"FEATURECLA":"Admin-2 scale rank","SCALERANK":0,"ADM2_CODE":"USA-05115","ISO_A2":"US","ADM0_SR":1,"NAME":"Pope","SR_SOV_A3":"US1","SR_ADM0_A3":"USA","ADMIN":"United States of America","SR_GU_A3":"USA"},"bbox":[-93.037679,35.459997,-93.037679,35.459997],"geometry":{"type":"Point","coordinates":[-93.037679,35.459997]}},{"type":"Feature","properties":{"FEATURECLA":"Admin-2 scale rank","SCALERANK":0,"ADM2_CODE":"USA-05117","ISO_A2":"US","ADM0_SR":1,"NAME":"Prairie","SR_SOV_A3":"US1","SR_ADM0_A3":"USA","ADMIN":"United States of America","SR_GU_A3":"USA"},"bbox":[-91.53583,34.81607,-91.53583,34.81607],"geometry":{"type":"Point","coordinates":[-91.53583,34.81607]}},{"type":"Feature","properties":{"FEATURECLA":"Admin-2 scale rank","SCALERANK":0,"ADM2_CODE":"USA-05119","ISO_A2":"US","ADM0_SR":1,"NAME":"Pulaski","SR_SOV_A3":"US1","SR_ADM0_A3":"USA","ADMIN":"United States of America","SR_GU_A3":"USA"},"bbox":[-92.253106,34.754545,-92.253106,34.754545],"geometry":{"type":"Point","coordinates":[-92.253106,34.754545]}},{"type":"Feature","properties":{"FEATURECLA":"Admin-2 scale rank","SCALERANK":0,"ADM2_CODE":"USA-05121","ISO_A2":"US","ADM0_SR":1,"NAME":"Randolph","SR_SOV_A3":"US1","SR_ADM0_A3":"USA","ADMIN":"United States of America","SR_GU_A3":"USA"},"bbox":[-91.029839,36.326316,-91.029839,36.326316],"geometry":{"type":"Point","coordinates":[-91.029839,36.326316]}},{"type":"Feature","properties":{"FEATURECLA":"Admin-2 scale rank","SCALERANK":0,"ADM2_CODE":"USA-05123","ISO_A2":"US","ADM0_SR":1,"NAME":"Saint Francis","SR_SOV_A3":"US1","SR_ADM0_A3":"USA","ADMIN":"United States of America","SR_GU_A3":"USA"},"bbox":[-90.747857,35.02642,-90.747857,35.02642],"geometry":{"type":"Point","coordinates":[-90.747857,35.02642]}},{"type":"Feature","properties":{"FEATURECLA":"Admin-2 scale rank","SCALERANK":0,"ADM2_CODE":"USA-05125","ISO_A2":"US","ADM0_SR":1,"NAME":"Saline","SR_SOV_A3":"US1","SR_ADM0_A3":"USA","ADMIN":"United States of America","SR_GU_A3":"USA"},"bbox":[-92.676554,34.63331,-92.676554,34.63331],"geometry":{"type":"Point","coordinates":[-92.676554,34.63331]}},{"type":"Feature","properties":{"FEATURECLA":"Admin-2 scale rank","SCALERANK":0,"ADM2_CODE":"USA-05127","ISO_A2":"US","ADM0_SR":1,"NAME":"Scott","SR_SOV_A3":"US1","SR_ADM0_A3":"USA","ADMIN":"United States of America","SR_GU_A3":"USA"},"bbox":[-94.063371,34.859941,-94.063371,34.859941],"geometry":{"type":"Point","coordinates":[-94.063371,34.859941]}},{"type":"Feature","properties":{"FEATURECLA":"Admin-2 scale rank","SCALERANK":0,"ADM2_CODE":"USA-05129","ISO_A2":"US","ADM0_SR":1,"NAME":"Searcy","SR_SOV_A3":"US1","SR_ADM0_A3":"USA","ADMIN":"United States of America","SR_GU_A3":"USA"},"bbox":[-92.758983,35.89464,-92.758983,35.89464],"geometry":{"type":"Point","coordinates":[-92.758983,35.89464]}},{"type":"Feature","properties":{"FEATURECLA":"Admin-2 scale rank","SCALERANK":0,"ADM2_CODE":"USA-05131","ISO_A2":"US","ADM0_SR":1,"NAME":"Sebastian","SR_SOV_A3":"US1","SR_ADM0_A3":"USA","ADMIN":"United States of America","SR_GU_A3":"USA"},"bbox":[-94.296643,35.206096,-94.296643,35.206096],"geometry":{"type":"Point","coordinates":[-94.296643,35.206096]}},{"type":"Feature","properties":{"FEATURECLA":"Admin-2 scale rank","SCALERANK":0,"ADM2_CODE":"USA-05133","ISO_A2":"US","ADM0_SR":1,"NAME":"Sevier","SR_SOV_A3":"US1","SR_ADM0_A3":"USA","ADMIN":"United States of America","SR_GU_A3":"USA"},"bbox":[-94.24446,34.018367,-94.24446,34.018367],"geometry":{"type":"Point","coordinates":[-94.24446,34.018367]}},{"type":"Feature","properties":{"FEATURECLA":"Admin-2 scale rank","SCALERANK":0,"ADM2_CODE":"USA-05135","ISO_A2":"US","ADM0_SR":1,"NAME":"Sharp","SR_SOV_A3":"US1","SR_ADM0_A3":"USA","ADMIN":"United States of America","SR_GU_A3":"USA"},"bbox":[-91.513987,36.095962,-91.513987,36.095962],"geometry":{"type":"Point","coordinates":[-91.513987,36.095962]}},{"type":"Feature","properties":{"FEATURECLA":"Admin-2 scale rank","SCALERANK":0,"ADM2_CODE":"USA-05137","ISO_A2":"US","ADM0_SR":1,"NAME":"Stone","SR_SOV_A3":"US1","SR_ADM0_A3":"USA","ADMIN":"United States of America","SR_GU_A3":"USA"},"bbox":[-92.220655,35.852392,-92.220655,35.852392],"geometry":{"type":"Point","coordinates":[-92.220655,35.852392]}},{"type":"Feature","properties":{"FEATURECLA":"Admin-2 scale rank","SCALERANK":0,"ADM2_CODE":"USA-05139","ISO_A2":"US","ADM0_SR":1,"NAME":"Union","SR_SOV_A3":"US1","SR_ADM0_A3":"USA","ADMIN":"United States of America","SR_GU_A3":"USA"},"bbox":[-92.626782,33.186336,-92.626782,33.186336],"geometry":{"type":"Point","coordinates":[-92.626782,33.186336]}},{"type":"Feature","properties":{"FEATURECLA":"Admin-2 scale rank","SCALERANK":0,"ADM2_CODE":"USA-05141","ISO_A2":"US","ADM0_SR":1,"NAME":"Van Buren","SR_SOV_A3":"US1","SR_ADM0_A3":"USA","ADMIN":"United States of America","SR_GU_A3":"USA"},"bbox":[-92.520991,35.605432,-92.520991,35.605432],"geometry":{"type":"Point","coordinates":[-92.520991,35.605432]}},{"type":"Feature","properties":{"FEATURECLA":"Admin-2 scale rank","SCALERANK":0,"ADM2_CODE":"USA-05143","ISO_A2":"US","ADM0_SR":1,"NAME":"Washington","SR_SOV_A3":"US1","SR_ADM0_A3":"USA","ADMIN":"United States of America","SR_GU_A3":"USA"},"bbox":[-94.184269,35.981682,-94.184269,35.981682],"geometry":{"type":"Point","coordinates":[-94.184269,35.981682]}},{"type":"Feature","properties":{"FEATURECLA":"Admin-2 scale rank","SCALERANK":0,"ADM2_CODE":"USA-05145","ISO_A2":"US","ADM0_SR":1,"NAME":"White","SR_SOV_A3":"US1","SR_ADM0_A3":"USA","ADMIN":"United States of America","SR_GU_A3":"USA"},"bbox":[-91.703106,35.254259,-91.703106,35.254259],"geometry":{"type":"Point","coordinates":[-91.703106,35.254259]}},{"type":"Feature","properties":{"FEATURECLA":"Admin-2 scale rank","SCALERANK":0,"ADM2_CODE":"USA-05147","ISO_A2":"US","ADM0_SR":1,"NAME":"Woodruff","SR_SOV_A3":"US1","SR_ADM0_A3":"USA","ADMIN":"United States of America","SR_GU_A3":"USA"},"bbox":[-91.223936,35.18053,-91.223936,35.18053],"geometry":{"type":"Point","coordinates":[-91.223936,35.18053]}},{"type":"Feature","properties":{"FEATURECLA":"Admin-2 scale rank","SCALERANK":0,"ADM2_CODE":"USA-05149","ISO_A2":"US","ADM0_SR":1,"NAME":"Yell","SR_SOV_A3":"US1","SR_ADM0_A3":"USA","ADMIN":"United States of America","SR_GU_A3":"USA"},"bbox":[-93.410227,35.014621,-93.410227,35.014621],"geometry":{"type":"Point","coordinates":[-93.410227,35.014621]}},{"type":"Feature","properties":{"FEATURECLA":"Admin-2 scale rank","SCALERANK":0,"ADM2_CODE":"USA-06001","ISO_A2":"US","ADM0_SR":1,"NAME":"Alameda","SR_SOV_A3":"US1","SR_ADM0_A3":"USA","ADMIN":"United States of America","SR_GU_A3":"USA"},"bbox":[-121.850782,37.615021,-121.850782,37.615021],"geometry":{"type":"Point","coordinates":[-121.850782,37.615021]}},{"type":"Feature","properties":{"FEATURECLA":"Admin-2 scale rank","SCALERANK":0,"ADM2_CODE":"USA-06003","ISO_A2":"US","ADM0_SR":1,"NAME":"Alpine","SR_SOV_A3":"US1","SR_ADM0_A3":"USA","ADMIN":"United States of America","SR_GU_A3":"USA"},"bbox":[-119.827261,38.623823,-119.827261,38.623823],"geometry":{"type":"Point","coordinates":[-119.827261,38.623823]}},{"type":"Feature","properties":{"FEATURECLA":"Admin-2 scale rank","SCALERANK":0,"ADM2_CODE":"USA-06005","ISO_A2":"US","ADM0_SR":1,"NAME":"Amador","SR_SOV_A3":"US1","SR_ADM0_A3":"USA","ADMIN":"United States of America","SR_GU_A3":"USA"},"bbox":[-120.794721,38.42982,-120.794721,38.42982],"geometry":{"type":"Point","coordinates":[-120.794721,38.42982]}},{"type":"Feature","properties":{"FEATURECLA":"Admin-2 scale rank","SCALERANK":0,"ADM2_CODE":"USA-06007","ISO_A2":"US","ADM0_SR":1,"NAME":"Butte","SR_SOV_A3":"US1","SR_ADM0_A3":"USA","ADMIN":"United States of America","SR_GU_A3":"USA"},"bbox":[-121.593897,39.65718,-121.593897,39.65718],"geometry":{"type":"Point","coordinates":[-121.593897,39.65718]}},{"type":"Feature","properties":{"FEATURECLA":"Admin-2 scale rank","SCALERANK":0,"ADM2_CODE":"USA-06009","ISO_A2":"US","ADM0_SR":1,"NAME":"Calaveras","SR_SOV_A3":"US1","SR_ADM0_A3":"USA","ADMIN":"United States of America","SR_GU_A3":"USA"},"bbox":[-120.642083,38.151321,-120.642083,38.151321],"geometry":{"type":"Point","coordinates":[-120.642083,38.151321]}},{"type":"Feature","properties":{"FEATURECLA":"Admin-2 scale rank","SCALERANK":0,"ADM2_CODE":"USA-06011","ISO_A2":"US","ADM0_SR":1,"NAME":"Colusa","SR_SOV_A3":"US1","SR_ADM0_A3":"USA","ADMIN":"United States of America","SR_GU_A3":"USA"},"bbox":[-122.219982,39.155512,-122.219982,39.155512],"geometry":{"type":"Point","coordinates":[-122.219982,39.155512]}},{"type":"Feature","properties":{"FEATURECLA":"Admin-2 scale rank","SCALERANK":0,"ADM2_CODE":"USA-06015","ISO_A2":"US","ADM0_SR":1,"NAME":"Del Norte","SR_SOV_A3":"US1","SR_ADM0_A3":"USA","ADMIN":"United States of America","SR_GU_A3":"USA"},"bbox":[-123.905356,41.73214,-123.905356,41.73214],"geometry":{"type":"Point","coordinates":[-123.905356,41.73214]}},{"type":"Feature","properties":{"FEATURECLA":"Admin-2 scale rank","SCALERANK":0,"ADM2_CODE":"USA-06017","ISO_A2":"US","ADM0_SR":1,"NAME":"El Dorado","SR_SOV_A3":"US1","SR_ADM0_A3":"USA","ADMIN":"United States of America","SR_GU_A3":"USA"},"bbox":[-120.513897,38.721114,-120.513897,38.721114],"geometry":{"type":"Point","coordinates":[-120.513897,38.721114]}},{"type":"Feature","properties":{"FEATURECLA":"Admin-2 scale rank","SCALERANK":0,"ADM2_CODE":"USA-06019","ISO_A2":"US","ADM0_SR":1,"NAME":"Fresno","SR_SOV_A3":"US1","SR_ADM0_A3":"USA","ADMIN":"United States of America","SR_GU_A3":"USA"},"bbox":[-119.33561,36.914734,-119.33561,36.914734],"geometry":{"type":"Point","coordinates":[-119.33561,36.914734]}},{"type":"Feature","properties":{"FEATURECLA":"Admin-2 scale rank","SCALERANK":0,"ADM2_CODE":"USA-06021","ISO_A2":"US","ADM0_SR":1,"NAME":"Glenn","SR_SOV_A3":"US1","SR_ADM0_A3":"USA","ADMIN":"United States of America","SR_GU_A3":"USA"},"bbox":[-122.386428,39.592777,-122.386428,39.592777],"geometry":{"type":"Point","coordinates":[-122.386428,39.592777]}},{"type":"Feature","properties":{"FEATURECLA":"Admin-2 scale rank","SCALERANK":0,"ADM2_CODE":"USA-06025","ISO_A2":"US","ADM0_SR":1,"NAME":"Imperial","SR_SOV_A3":"US1","SR_ADM0_A3":"USA","ADMIN":"United States of America","SR_GU_A3":"USA"},"bbox":[-115.36437,33.048183,-115.36437,33.048183],"geometry":{"type":"Point","coordinates":[-115.36437,33.048183]}},{"type":"Feature","properties":{"FEATURECLA":"Admin-2 scale rank","SCALERANK":0,"ADM2_CODE":"USA-06027","ISO_A2":"US","ADM0_SR":1,"NAME":"Inyo","SR_SOV_A3":"US1","SR_ADM0_A3":"USA","ADMIN":"United States of America","SR_GU_A3":"USA"},"bbox":[-117.52403,36.445907,-117.52403,36.445907],"geometry":{"type":"Point","coordinates":[-117.52403,36.445907]}},{"type":"Feature","properties":{"FEATURECLA":"Admin-2 scale rank","SCALERANK":0,"ADM2_CODE":"USA-06029","ISO_A2":"US","ADM0_SR":1,"NAME":"Kern","SR_SOV_A3":"US1","SR_ADM0_A3":"USA","ADMIN":"United States of America","SR_GU_A3":"USA"},"bbox":[-118.733514,35.304149,-118.733514,35.304149],"geometry":{"type":"Point","coordinates":[-118.733514,35.304149]}},{"type":"Feature","properties":{"FEATURECLA":"Admin-2 scale rank","SCALERANK":0,"ADM2_CODE":"USA-06031","ISO_A2":"US","ADM0_SR":1,"NAME":"Kings","SR_SOV_A3":"US1","SR_ADM0_A3":"USA","ADMIN":"United States of America","SR_GU_A3":"USA"},"bbox":[-119.780896,36.026003,-119.780896,36.026003],"geometry":{"type":"Point","coordinates":[-119.780896,36.026003]}},{"type":"Feature","properties":{"FEATURECLA":"Admin-2 scale rank","SCALERANK":0,"ADM2_CODE":"USA-06033","ISO_A2":"US","ADM0_SR":1,"NAME":"Lake","SR_SOV_A3":"US1","SR_ADM0_A3":"USA","ADMIN":"United States of America","SR_GU_A3":"USA"},"bbox":[-122.790738,39.068571,-122.790738,39.068571],"geometry":{"type":"Point","coordinates":[-122.790738,39.068571]}},{"type":"Feature","properties":{"FEATURECLA":"Admin-2 scale rank","SCALERANK":0,"ADM2_CODE":"USA-06035","ISO_A2":"US","ADM0_SR":1,"NAME":"Lassen","SR_SOV_A3":"US1","SR_ADM0_A3":"USA","ADMIN":"United States of America","SR_GU_A3":"USA"},"bbox":[-120.583374,40.734676,-120.583374,40.734676],"geometry":{"type":"Point","coordinates":[-120.583374,40.734676]}},{"type":"Feature","properties":{"FEATURECLA":"Admin-2 scale rank","SCALERANK":0,"ADM2_CODE":"USA-06037","ISO_A2":"US","ADM0_SR":1,"NAME":"Los Angeles","SR_SOV_A3":"US1","SR_ADM0_A3":"USA","ADMIN":"United States of America","SR_GU_A3":"USA"},"bbox":[-118.477239,32.879232,-118.477239,32.879232],"geometry":{"type":"Point","coordinates":[-118.477239,32.879232]}},{"type":"Feature","properties":{"FEATURECLA":"Admin-2 scale rank","SCALERANK":0,"ADM2_CODE":"USA-06037","ISO_A2":"US","ADM0_SR":1,"NAME":"Los Angeles","SR_SOV_A3":"US1","SR_ADM0_A3":"USA","ADMIN":"United States of America","SR_GU_A3":"USA"},"bbox":[-118.424515,33.372455,-118.424515,33.372455],"geometry":{"type":"Point","coordinates":[-118.424515,33.372455]}},{"type":"Feature","properties":{"FEATURECLA":"Admin-2 scale rank","SCALERANK":0,"ADM2_CODE":"USA-06037","ISO_A2":"US","ADM0_SR":1,"NAME":"Los Angeles","SR_SOV_A3":"US1","SR_ADM0_A3":"USA","ADMIN":"United States of America","SR_GU_A3":"USA"},"bbox":[-118.260201,33.741387,-118.260201,33.741387],"geometry":{"type":"Point","coordinates":[-118.260201,33.741387]}},{"type":"Feature","properties":{"FEATURECLA":"Admin-2 scale rank","SCALERANK":0,"ADM2_CODE":"USA-06037","ISO_A2":"US","ADM0_SR":1,"NAME":"Los Angeles","SR_SOV_A3":"US1","SR_ADM0_A3":"USA","ADMIN":"United States of America","SR_GU_A3":"USA"},"bbox":[-118.166321,34.365301,-118.166321,34.365301],"geometry":{"type":"Point","coordinates":[-118.166321,34.365301]}},{"type":"Feature","properties":{"FEATURECLA":"Admin-2 scale rank","SCALERANK":0,"ADM2_CODE":"USA-06039","ISO_A2":"US","ADM0_SR":1,"NAME":"Madera","SR_SOV_A3":"US1","SR_ADM0_A3":"USA","ADMIN":"United States of America","SR_GU_A3":"USA"},"bbox":[-119.706649,37.202983,-119.706649,37.202983],"geometry":{"type":"Point","coordinates":[-119.706649,37.202983]}},{"type":"Feature","properties":{"FEATURECLA":"Admin-2 scale rank","SCALERANK":0,"ADM2_CODE":"USA-06043","ISO_A2":"US","ADM0_SR":1,"NAME":"Mariposa","SR_SOV_A3":"US1","SR_ADM0_A3":"USA","ADMIN":"United States of America","SR_GU_A3":"USA"},"bbox":[-120.032577,37.52916,-120.032577,37.52916],"geometry":{"type":"Point","coordinates":[-120.032577,37.52916]}},{"type":"Feature","properties":{"FEATURECLA":"Admin-2 scale rank","SCALERANK":0,"ADM2_CODE":"USA-06045","ISO_A2":"US","ADM0_SR":1,"NAME":"Mendocino","SR_SOV_A3":"US1","SR_ADM0_A3":"USA","ADMIN":"United States of America","SR_GU_A3":"USA"},"bbox":[-123.440627,39.37733,-123.440627,39.37733],"geometry":{"type":"Point","coordinates":[-123.440627,39.37733]}},{"type":"Feature","properties":{"FEATURECLA":"Admin-2 scale rank","SCALERANK":0,"ADM2_CODE":"USA-06047","ISO_A2":"US","ADM0_SR":1,"NAME":"Merced","SR_SOV_A3":"US1","SR_ADM0_A3":"USA","ADMIN":"United States of America","SR_GU_A3":"USA"},"bbox":[-120.726749,37.225414,-120.726749,37.225414],"geometry":{"type":"Point","coordinates":[-120.726749,37.225414]}},{"type":"Feature","properties":{"FEATURECLA":"Admin-2 scale rank","SCALERANK":0,"ADM2_CODE":"USA-06049","ISO_A2":"US","ADM0_SR":1,"NAME":"Modoc","SR_SOV_A3":"US1","SR_ADM0_A3":"USA","ADMIN":"United States of America","SR_GU_A3":"USA"},"bbox":[-120.724719,41.592454,-120.724719,41.592454],"geometry":{"type":"Point","coordinates":[-120.724719,41.592454]}},{"type":"Feature","properties":{"FEATURECLA":"Admin-2 scale rank","SCALERANK":0,"ADM2_CODE":"USA-06051","ISO_A2":"US","ADM0_SR":1,"NAME":"Mono","SR_SOV_A3":"US1","SR_ADM0_A3":"USA","ADMIN":"United States of America","SR_GU_A3":"USA"},"bbox":[-118.820211,37.830027,-118.820211,37.830027],"geometry":{"type":"Point","coordinates":[-118.820211,37.830027]}},{"type":"Feature","properties":{"FEATURECLA":"Admin-2 scale rank","SCALERANK":0,"ADM2_CODE":"USA-06053","ISO_A2":"US","ADM0_SR":1,"NAME":"Monterey","SR_SOV_A3":"US1","SR_ADM0_A3":"USA","ADMIN":"United States of America","SR_GU_A3":"USA"},"bbox":[-121.326505,36.210737,-121.326505,36.210737],"geometry":{"type":"Point","coordinates":[-121.326505,36.210737]}},{"type":"Feature","properties":{"FEATURECLA":"Admin-2 scale rank","SCALERANK":0,"ADM2_CODE":"USA-06055","ISO_A2":"US","ADM0_SR":1,"NAME":"Napa","SR_SOV_A3":"US1","SR_ADM0_A3":"USA","ADMIN":"United States of America","SR_GU_A3":"USA"},"bbox":[-122.30133,38.511534,-122.30133,38.511534],"geometry":{"type":"Point","coordinates":[-122.30133,38.511534]}},{"type":"Feature","properties":{"FEATURECLA":"Admin-2 scale rank","SCALERANK":0,"ADM2_CODE":"USA-06057","ISO_A2":"US","ADM0_SR":1,"NAME":"Nevada","SR_SOV_A3":"US1","SR_ADM0_A3":"USA","ADMIN":"United States of America","SR_GU_A3":"USA"},"bbox":[-121.050617,39.231031,-121.050617,39.231031],"geometry":{"type":"Point","coordinates":[-121.050617,39.231031]}},{"type":"Feature","properties":{"FEATURECLA":"Admin-2 scale rank","SCALERANK":0,"ADM2_CODE":"USA-06061","ISO_A2":"US","ADM0_SR":1,"NAME":"Placer","SR_SOV_A3":"US1","SR_ADM0_A3":"USA","ADMIN":"United States of America","SR_GU_A3":"USA"},"bbox":[-120.590499,39.124104,-120.590499,39.124104],"geometry":{"type":"Point","coordinates":[-120.590499,39.124104]}},{"type":"Feature","properties":{"FEATURECLA":"Admin-2 scale rank","SCALERANK":0,"ADM2_CODE":"USA-06063","ISO_A2":"US","ADM0_SR":1,"NAME":"Plumas","SR_SOV_A3":"US1","SR_ADM0_A3":"USA","ADMIN":"United States of America","SR_GU_A3":"USA"},"bbox":[-120.685722,39.996239,-120.685722,39.996239],"geometry":{"type":"Point","coordinates":[-120.685722,39.996239]}},{"type":"Feature","properties":{"FEATURECLA":"Admin-2 scale rank","SCALERANK":0,"ADM2_CODE":"USA-06065","ISO_A2":"US","ADM0_SR":1,"NAME":"Riverside","SR_SOV_A3":"US1","SR_ADM0_A3":"USA","ADMIN":"United States of America","SR_GU_A3":"USA"},"bbox":[-115.991762,33.73215,-115.991762,33.73215],"geometry":{"type":"Point","coordinates":[-115.991762,33.73215]}},{"type":"Feature","properties":{"FEATURECLA":"Admin-2 scale rank","SCALERANK":0,"ADM2_CODE":"USA-06067","ISO_A2":"US","ADM0_SR":1,"NAME":"Sacramento","SR_SOV_A3":"US1","SR_ADM0_A3":"USA","ADMIN":"United States of America","SR_GU_A3":"USA"},"bbox":[-121.264991,38.484259,-121.264991,38.484259],"geometry":{"type":"Point","coordinates":[-121.264991,38.484259]}},{"type":"Feature","properties":{"FEATURECLA":"Admin-2 scale rank","SCALERANK":0,"ADM2_CODE":"USA-06069","ISO_A2":"US","ADM0_SR":1,"NAME":"San Benito","SR_SOV_A3":"US1","SR_ADM0_A3":"USA","ADMIN":"United States of America","SR_GU_A3":"USA"},"bbox":[-121.030678,36.575125,-121.030678,36.575125],"geometry":{"type":"Point","coordinates":[-121.030678,36.575125]}},{"type":"Feature","properties":{"FEATURECLA":"Admin-2 scale rank","SCALERANK":0,"ADM2_CODE":"USA-06071","ISO_A2":"US","ADM0_SR":1,"NAME":"San Bernardino","SR_SOV_A3":"US1","SR_ADM0_A3":"USA","ADMIN":"United States of America","SR_GU_A3":"USA"},"bbox":[-116.179333,34.915788,-116.179333,34.915788],"geometry":{"type":"Point","coordinates":[-116.179333,34.915788]}},{"type":"Feature","properties":{"FEATURECLA":"Admin-2 scale rank","SCALERANK":0,"ADM2_CODE":"USA-06077","ISO_A2":"US","ADM0_SR":1,"NAME":"San Joaquin","SR_SOV_A3":"US1","SR_ADM0_A3":"USA","ADMIN":"United States of America","SR_GU_A3":"USA"},"bbox":[-121.200063,37.976297,-121.200063,37.976297],"geometry":{"type":"Point","coordinates":[-121.200063,37.976297]}},{"type":"Feature","properties":{"FEATURECLA":"Admin-2 scale rank","SCALERANK":0,"ADM2_CODE":"USA-06079","ISO_A2":"US","ADM0_SR":1,"NAME":"San Luis Obispo","SR_SOV_A3":"US1","SR_ADM0_A3":"USA","ADMIN":"United States of America","SR_GU_A3":"USA"},"bbox":[-120.418539,35.384948,-120.418539,35.384948],"geometry":{"type":"Point","coordinates":[-120.418539,35.384948]}},{"type":"Feature","properties":{"FEATURECLA":"Admin-2 scale rank","SCALERANK":0,"ADM2_CODE":"USA-06081","ISO_A2":"US","ADM0_SR":1,"NAME":"San Mateo","SR_SOV_A3":"US1","SR_ADM0_A3":"USA","ADMIN":"United States of America","SR_GU_A3":"USA"},"bbox":[-122.309853,37.440457,-122.309853,37.440457],"geometry":{"type":"Point","coordinates":[-122.309853,37.440457]}},{"type":"Feature","properties":{"FEATURECLA":"Admin-2 scale rank","SCALERANK":0,"ADM2_CODE":"USA-06085","ISO_A2":"US","ADM0_SR":1,"NAME":"Santa Clara","SR_SOV_A3":"US1","SR_ADM0_A3":"USA","ADMIN":"United States of America","SR_GU_A3":"USA"},"bbox":[-121.686744,37.247398,-121.686744,37.247398],"geometry":{"type":"Point","coordinates":[-121.686744,37.247398]}},{"type":"Feature","properties":{"FEATURECLA":"Admin-2 scale rank","SCALERANK":0,"ADM2_CODE":"USA-06087","ISO_A2":"US","ADM0_SR":1,"NAME":"Santa Cruz","SR_SOV_A3":"US1","SR_ADM0_A3":"USA","ADMIN":"United States of America","SR_GU_A3":"USA"},"bbox":[-122.070474,37.067542,-122.070474,37.067542],"geometry":{"type":"Point","coordinates":[-122.070474,37.067542]}},{"type":"Feature","properties":{"FEATURECLA":"Admin-2 scale rank","SCALERANK":0,"ADM2_CODE":"USA-06089","ISO_A2":"US","ADM0_SR":1,"NAME":"Shasta","SR_SOV_A3":"US1","SR_ADM0_A3":"USA","ADMIN":"United States of America","SR_GU_A3":"USA"},"bbox":[-122.040018,40.801847,-122.040018,40.801847],"geometry":{"type":"Point","coordinates":[-122.040018,40.801847]}},{"type":"Feature","properties":{"FEATURECLA":"Admin-2 scale rank","SCALERANK":0,"ADM2_CODE":"USA-06091","ISO_A2":"US","ADM0_SR":1,"NAME":"Sierra","SR_SOV_A3":"US1","SR_ADM0_A3":"USA","ADMIN":"United States of America","SR_GU_A3":"USA"},"bbox":[-120.419965,39.576355,-120.419965,39.576355],"geometry":{"type":"Point","coordinates":[-120.419965,39.576355]}},{"type":"Feature","properties":{"FEATURECLA":"Admin-2 scale rank","SCALERANK":0,"ADM2_CODE":"USA-06093","ISO_A2":"US","ADM0_SR":1,"NAME":"Siskiyou","SR_SOV_A3":"US1","SR_ADM0_A3":"USA","ADMIN":"United States of America","SR_GU_A3":"USA"},"bbox":[-122.177795,41.592072,-122.177795,41.592072],"geometry":{"type":"Point","coordinates":[-122.177795,41.592072]}},{"type":"Feature","properties":{"FEATURECLA":"Admin-2 scale rank","SCALERANK":0,"ADM2_CODE":"USA-06095","ISO_A2":"US","ADM0_SR":1,"NAME":"Solano","SR_SOV_A3":"US1","SR_ADM0_A3":"USA","ADMIN":"United States of America","SR_GU_A3":"USA"},"bbox":[-121.885445,38.278579,-121.885445,38.278579],"geometry":{"type":"Point","coordinates":[-121.885445,38.278579]}},{"type":"Feature","properties":{"FEATURECLA":"Admin-2 scale rank","SCALERANK":0,"ADM2_CODE":"USA-06097","ISO_A2":"US","ADM0_SR":1,"NAME":"Sonoma","SR_SOV_A3":"US1","SR_ADM0_A3":"USA","ADMIN":"United States of America","SR_GU_A3":"USA"},"bbox":[-122.897556,38.555026,-122.897556,38.555026],"geometry":{"type":"Point","coordinates":[-122.897556,38.555026]}},{"type":"Feature","properties":{"FEATURECLA":"Admin-2 scale rank","SCALERANK":0,"ADM2_CODE":"USA-06099","ISO_A2":"US","ADM0_SR":1,"NAME":"Stanislaus","SR_SOV_A3":"US1","SR_ADM0_A3":"USA","ADMIN":"United States of America","SR_GU_A3":"USA"},"bbox":[-121.052093,37.569758,-121.052093,37.569758],"geometry":{"type":"Point","coordinates":[-121.052093,37.569758]}},{"type":"Feature","properties":{"FEATURECLA":"Admin-2 scale rank","SCALERANK":0,"ADM2_CODE":"USA-06101","ISO_A2":"US","ADM0_SR":1,"NAME":"Sutter","SR_SOV_A3":"US1","SR_ADM0_A3":"USA","ADMIN":"United States of America","SR_GU_A3":"USA"},"bbox":[-121.710776,39.11304,-121.710776,39.11304],"geometry":{"type":"Point","coordinates":[-121.710776,39.11304]}},{"type":"Feature","properties":{"FEATURECLA":"Admin-2 scale rank","SCALERANK":0,"ADM2_CODE":"USA-06103","ISO_A2":"US","ADM0_SR":1,"NAME":"Tehama","SR_SOV_A3":"US1","SR_ADM0_A3":"USA","ADMIN":"United States of America","SR_GU_A3":"USA"},"bbox":[-122.233031,40.094238,-122.233031,40.094238],"geometry":{"type":"Point","coordinates":[-122.233031,40.094238]}},{"type":"Feature","properties":{"FEATURECLA":"Admin-2 scale rank","SCALERANK":0,"ADM2_CODE":"USA-06105","ISO_A2":"US","ADM0_SR":1,"NAME":"Trinity","SR_SOV_A3":"US1","SR_ADM0_A3":"USA","ADMIN":"United States of America","SR_GU_A3":"USA"},"bbox":[-123.200052,40.683647,-123.200052,40.683647],"geometry":{"type":"Point","coordinates":[-123.200052,40.683647]}},{"type":"Feature","properties":{"FEATURECLA":"Admin-2 scale rank","SCALERANK":0,"ADM2_CODE":"USA-06107","ISO_A2":"US","ADM0_SR":1,"NAME":"Tulare","SR_SOV_A3":"US1","SR_ADM0_A3":"USA","ADMIN":"United States of America","SR_GU_A3":"USA"},"bbox":[-118.709409,36.265061,-118.709409,36.265061],"geometry":{"type":"Point","coordinates":[-118.709409,36.265061]}},{"type":"Feature","properties":{"FEATURECLA":"Admin-2 scale rank","SCALERANK":0,"ADM2_CODE":"USA-06109","ISO_A2":"US","ADM0_SR":1,"NAME":"Tuolumne","SR_SOV_A3":"US1","SR_ADM0_A3":"USA","ADMIN":"United States of America","SR_GU_A3":"USA"},"bbox":[-119.894802,38.069605,-119.894802,38.069605],"geometry":{"type":"Point","coordinates":[-119.894802,38.069605]}},{"type":"Feature","properties":{"FEATURECLA":"Admin-2 scale rank","SCALERANK":0,"ADM2_CODE":"USA-06113","ISO_A2":"US","ADM0_SR":1,"NAME":"Yolo","SR_SOV_A3":"US1","SR_ADM0_A3":"USA","ADMIN":"United States of America","SR_GU_A3":"USA"},"bbox":[-121.934779,38.728051,-121.934779,38.728051],"geometry":{"type":"Point","coordinates":[-121.934779,38.728051]}},{"type":"Feature","properties":{"FEATURECLA":"Admin-2 scale rank","SCALERANK":0,"ADM2_CODE":"USA-06115","ISO_A2":"US","ADM0_SR":1,"NAME":"Yuba","SR_SOV_A3":"US1","SR_ADM0_A3":"USA","ADMIN":"United States of America","SR_GU_A3":"USA"},"bbox":[-121.427623,39.178529,-121.427623,39.178529],"geometry":{"type":"Point","coordinates":[-121.427623,39.178529]}},{"type":"Feature","properties":{"FEATURECLA":"Admin-2 scale rank","SCALERANK":0,"ADM2_CODE":"USA-08001","ISO_A2":"US","ADM0_SR":1,"NAME":"Adams","SR_SOV_A3":"US1","SR_ADM0_A3":"USA","ADMIN":"United States of America","SR_GU_A3":"USA"},"bbox":[-104.338626,39.869506,-104.338626,39.869506],"geometry":{"type":"Point","coordinates":[-104.338626,39.869506]}},{"type":"Feature","properties":{"FEATURECLA":"Admin-2 scale rank","SCALERANK":0,"ADM2_CODE":"USA-08003","ISO_A2":"US","ADM0_SR":1,"NAME":"Alamosa","SR_SOV_A3":"US1","SR_ADM0_A3":"USA","ADMIN":"United States of America","SR_GU_A3":"USA"},"bbox":[-105.812011,37.553403,-105.812011,37.553403],"geometry":{"type":"Point","coordinates":[-105.812011,37.553403]}},{"type":"Feature","properties":{"FEATURECLA":"Admin-2 scale rank","SCALERANK":0,"ADM2_CODE":"USA-08005","ISO_A2":"US","ADM0_SR":1,"NAME":"Arapahoe","SR_SOV_A3":"US1","SR_ADM0_A3":"USA","ADMIN":"United States of America","SR_GU_A3":"USA"},"bbox":[-104.338161,39.651266,-104.338161,39.651266],"geometry":{"type":"Point","coordinates":[-104.338161,39.651266]}},{"type":"Feature","properties":{"FEATURECLA":"Admin-2 scale rank","SCALERANK":0,"ADM2_CODE":"USA-08007","ISO_A2":"US","ADM0_SR":1,"NAME":"Archuleta","SR_SOV_A3":"US1","SR_ADM0_A3":"USA","ADMIN":"United States of America","SR_GU_A3":"USA"},"bbox":[-107.051123,37.196295,-107.051123,37.196295],"geometry":{"type":"Point","coordinates":[-107.051123,37.196295]}},{"type":"Feature","properties":{"FEATURECLA":"Admin-2 scale rank","SCALERANK":0,"ADM2_CODE":"USA-08009","ISO_A2":"US","ADM0_SR":1,"NAME":"Baca","SR_SOV_A3":"US1","SR_ADM0_A3":"USA","ADMIN":"United States of America","SR_GU_A3":"USA"},"bbox":[-102.561814,37.321685,-102.561814,37.321685],"geometry":{"type":"Point","coordinates":[-102.561814,37.321685]}},{"type":"Feature","properties":{"FEATURECLA":"Admin-2 scale rank","SCALERANK":0,"ADM2_CODE":"USA-08011","ISO_A2":"US","ADM0_SR":1,"NAME":"Bent","SR_SOV_A3":"US1","SR_ADM0_A3":"USA","ADMIN":"United States of America","SR_GU_A3":"USA"},"bbox":[-103.072325,37.954978,-103.072325,37.954978],"geometry":{"type":"Point","coordinates":[-103.072325,37.954978]}},{"type":"Feature","properties":{"FEATURECLA":"Admin-2 scale rank","SCALERANK":0,"ADM2_CODE":"USA-08013","ISO_A2":"US","ADM0_SR":1,"NAME":"Boulder","SR_SOV_A3":"US1","SR_ADM0_A3":"USA","ADMIN":"United States of America","SR_GU_A3":"USA"},"bbox":[-105.318996,40.087938,-105.318996,40.087938],"geometry":{"type":"Point","coordinates":[-105.318996,40.087938]}},{"type":"Feature","properties":{"FEATURECLA":"Admin-2 scale rank","SCALERANK":0,"ADM2_CODE":"USA-08014","ISO_A2":"US","ADM0_SR":1,"NAME":"Broomfield","SR_SOV_A3":"US1","SR_ADM0_A3":"USA","ADMIN":"United States of America","SR_GU_A3":"USA"},"bbox":[-105.045095,39.945105,-105.045095,39.945105],"geometry":{"type":"Point","coordinates":[-105.045095,39.945105]}},{"type":"Feature","properties":{"FEATURECLA":"Admin-2 scale rank","SCALERANK":0,"ADM2_CODE":"USA-08015","ISO_A2":"US","ADM0_SR":1,"NAME":"Chaffee","SR_SOV_A3":"US1","SR_ADM0_A3":"USA","ADMIN":"United States of America","SR_GU_A3":"USA"},"bbox":[-106.187297,38.73933,-106.187297,38.73933],"geometry":{"type":"Point","coordinates":[-106.187297,38.73933]}},{"type":"Feature","properties":{"FEATURECLA":"Admin-2 scale rank","SCALERANK":0,"ADM2_CODE":"USA-08017","ISO_A2":"US","ADM0_SR":1,"NAME":"Cheyenne","SR_SOV_A3":"US1","SR_ADM0_A3":"USA","ADMIN":"United States of America","SR_GU_A3":"USA"},"bbox":[-102.60404,38.826829,-102.60404,38.826829],"geometry":{"type":"Point","coordinates":[-102.60404,38.826829]}},{"type":"Feature","properties":{"FEATURECLA":"Admin-2 scale rank","SCALERANK":0,"ADM2_CODE":"USA-08019","ISO_A2":"US","ADM0_SR":1,"NAME":"Clear Creek","SR_SOV_A3":"US1","SR_ADM0_A3":"USA","ADMIN":"United States of America","SR_GU_A3":"USA"},"bbox":[-105.649781,39.692243,-105.649781,39.692243],"geometry":{"type":"Point","coordinates":[-105.649781,39.692243]}},{"type":"Feature","properties":{"FEATURECLA":"Admin-2 scale rank","SCALERANK":0,"ADM2_CODE":"USA-08021","ISO_A2":"US","ADM0_SR":1,"NAME":"Conejos","SR_SOV_A3":"US1","SR_ADM0_A3":"USA","ADMIN":"United States of America","SR_GU_A3":"USA"},"bbox":[-106.190634,37.200412,-106.190634,37.200412],"geometry":{"type":"Point","coordinates":[-106.190634,37.200412]}},{"type":"Feature","properties":{"FEATURECLA":"Admin-2 scale rank","SCALERANK":0,"ADM2_CODE":"USA-08023","ISO_A2":"US","ADM0_SR":1,"NAME":"Costilla","SR_SOV_A3":"US1","SR_ADM0_A3":"USA","ADMIN":"United States of America","SR_GU_A3":"USA"},"bbox":[-105.432836,37.270843,-105.432836,37.270843],"geometry":{"type":"Point","coordinates":[-105.432836,37.270843]}},{"type":"Feature","properties":{"FEATURECLA":"Admin-2 scale rank","SCALERANK":0,"ADM2_CODE":"USA-08025","ISO_A2":"US","ADM0_SR":1,"NAME":"Crowley","SR_SOV_A3":"US1","SR_ADM0_A3":"USA","ADMIN":"United States of America","SR_GU_A3":"USA"},"bbox":[-103.78119,38.317202,-103.78119,38.317202],"geometry":{"type":"Point","coordinates":[-103.78119,38.317202]}},{"type":"Feature","properties":{"FEATURECLA":"Admin-2 scale rank","SCALERANK":0,"ADM2_CODE":"USA-08027","ISO_A2":"US","ADM0_SR":1,"NAME":"Custer","SR_SOV_A3":"US1","SR_ADM0_A3":"USA","ADMIN":"United States of America","SR_GU_A3":"USA"},"bbox":[-105.374593,38.088101,-105.374593,38.088101],"geometry":{"type":"Point","coordinates":[-105.374593,38.088101]}},{"type":"Feature","properties":{"FEATURECLA":"Admin-2 scale rank","SCALERANK":0,"ADM2_CODE":"USA-08029","ISO_A2":"US","ADM0_SR":1,"NAME":"Delta","SR_SOV_A3":"US1","SR_ADM0_A3":"USA","ADMIN":"United States of America","SR_GU_A3":"USA"},"bbox":[-107.862821,38.872715,-107.862821,38.872715],"geometry":{"type":"Point","coordinates":[-107.862821,38.872715]}},{"type":"Feature","properties":{"FEATURECLA":"Admin-2 scale rank","SCALERANK":0,"ADM2_CODE":"USA-08031","ISO_A2":"US","ADM0_SR":1,"NAME":"Denver","SR_SOV_A3":"US1","SR_ADM0_A3":"USA","ADMIN":"United States of America","SR_GU_A3":"USA"},"bbox":[-104.947525,39.723239,-104.947525,39.723239],"geometry":{"type":"Point","coordinates":[-104.947525,39.723239]}},{"type":"Feature","properties":{"FEATURECLA":"Admin-2 scale rank","SCALERANK":0,"ADM2_CODE":"USA-08033","ISO_A2":"US","ADM0_SR":1,"NAME":"Dolores","SR_SOV_A3":"US1","SR_ADM0_A3":"USA","ADMIN":"United States of America","SR_GU_A3":"USA"},"bbox":[-108.521329,37.763366,-108.521329,37.763366],"geometry":{"type":"Point","coordinates":[-108.521329,37.763366]}},{"type":"Feature","properties":{"FEATURECLA":"Admin-2 scale rank","SCALERANK":0,"ADM2_CODE":"USA-08035","ISO_A2":"US","ADM0_SR":1,"NAME":"Douglas","SR_SOV_A3":"US1","SR_ADM0_A3":"USA","ADMIN":"United States of America","SR_GU_A3":"USA"},"bbox":[-104.93505,39.347865,-104.93505,39.347865],"geometry":{"type":"Point","coordinates":[-104.93505,39.347865]}},{"type":"Feature","properties":{"FEATURECLA":"Admin-2 scale rank","SCALERANK":0,"ADM2_CODE":"USA-08037","ISO_A2":"US","ADM0_SR":1,"NAME":"Eagle","SR_SOV_A3":"US1","SR_ADM0_A3":"USA","ADMIN":"United States of America","SR_GU_A3":"USA"},"bbox":[-106.695561,39.64103,-106.695561,39.64103],"geometry":{"type":"Point","coordinates":[-106.695561,39.64103]}},{"type":"Feature","properties":{"FEATURECLA":"Admin-2 scale rank","SCALERANK":0,"ADM2_CODE":"USA-08039","ISO_A2":"US","ADM0_SR":1,"NAME":"Elbert","SR_SOV_A3":"US1","SR_ADM0_A3":"USA","ADMIN":"United States of America","SR_GU_A3":"USA"},"bbox":[-104.135581,39.346933,-104.135581,39.346933],"geometry":{"type":"Point","coordinates":[-104.135581,39.346933]}},{"type":"Feature","properties":{"FEATURECLA":"Admin-2 scale rank","SCALERANK":0,"ADM2_CODE":"USA-08041","ISO_A2":"US","ADM0_SR":1,"NAME":"El Paso","SR_SOV_A3":"US1","SR_ADM0_A3":"USA","ADMIN":"United States of America","SR_GU_A3":"USA"},"bbox":[-104.525474,38.824549,-104.525474,38.824549],"geometry":{"type":"Point","coordinates":[-104.525474,38.824549]}},{"type":"Feature","properties":{"FEATURECLA":"Admin-2 scale rank","SCALERANK":0,"ADM2_CODE":"USA-08043","ISO_A2":"US","ADM0_SR":1,"NAME":"Fremont","SR_SOV_A3":"US1","SR_ADM0_A3":"USA","ADMIN":"United States of America","SR_GU_A3":"USA"},"bbox":[-105.439366,38.479259,-105.439366,38.479259],"geometry":{"type":"Point","coordinates":[-105.439366,38.479259]}},{"type":"Feature","properties":{"FEATURECLA":"Admin-2 scale rank","SCALERANK":0,"ADM2_CODE":"USA-08045","ISO_A2":"US","ADM0_SR":1,"NAME":"Garfield","SR_SOV_A3":"US1","SR_ADM0_A3":"USA","ADMIN":"United States of America","SR_GU_A3":"USA"},"bbox":[-107.718607,39.597465,-107.718607,39.597465],"geometry":{"type":"Point","coordinates":[-107.718607,39.597465]}},{"type":"Feature","properties":{"FEATURECLA":"Admin-2 scale rank","SCALERANK":0,"ADM2_CODE":"USA-08047","ISO_A2":"US","ADM0_SR":1,"NAME":"Gilpin","SR_SOV_A3":"US1","SR_ADM0_A3":"USA","ADMIN":"United States of America","SR_GU_A3":"USA"},"bbox":[-105.489331,39.846878,-105.489331,39.846878],"geometry":{"type":"Point","coordinates":[-105.489331,39.846878]}},{"type":"Feature","properties":{"FEATURECLA":"Admin-2 scale rank","SCALERANK":0,"ADM2_CODE":"USA-08049","ISO_A2":"US","ADM0_SR":1,"NAME":"Grand","SR_SOV_A3":"US1","SR_ADM0_A3":"USA","ADMIN":"United States of America","SR_GU_A3":"USA"},"bbox":[-106.026281,40.089554,-106.026281,40.089554],"geometry":{"type":"Point","coordinates":[-106.026281,40.089554]}},{"type":"Feature","properties":{"FEATURECLA":"Admin-2 scale rank","SCALERANK":0,"ADM2_CODE":"USA-08051","ISO_A2":"US","ADM0_SR":1,"NAME":"Gunnison","SR_SOV_A3":"US1","SR_ADM0_A3":"USA","ADMIN":"United States of America","SR_GU_A3":"USA"},"bbox":[-107.158204,38.727661,-107.158204,38.727661],"geometry":{"type":"Point","coordinates":[-107.158204,38.727661]}},{"type":"Feature","properties":{"FEATURECLA":"Admin-2 scale rank","SCALERANK":0,"ADM2_CODE":"USA-08053","ISO_A2":"US","ADM0_SR":1,"NAME":"Hinsdale","SR_SOV_A3":"US1","SR_ADM0_A3":"USA","ADMIN":"United States of America","SR_GU_A3":"USA"},"bbox":[-107.300454,37.818447,-107.300454,37.818447],"geometry":{"type":"Point","coordinates":[-107.300454,37.818447]}},{"type":"Feature","properties":{"FEATURECLA":"Admin-2 scale rank","SCALERANK":0,"ADM2_CODE":"USA-08055","ISO_A2":"US","ADM0_SR":1,"NAME":"Huerfano","SR_SOV_A3":"US1","SR_ADM0_A3":"USA","ADMIN":"United States of America","SR_GU_A3":"USA"},"bbox":[-104.922069,37.639714,-104.922069,37.639714],"geometry":{"type":"Point","coordinates":[-104.922069,37.639714]}},{"type":"Feature","properties":{"FEATURECLA":"Admin-2 scale rank","SCALERANK":0,"ADM2_CODE":"USA-08057","ISO_A2":"US","ADM0_SR":1,"NAME":"Jackson","SR_SOV_A3":"US1","SR_ADM0_A3":"USA","ADMIN":"United States of America","SR_GU_A3":"USA"},"bbox":[-106.351541,40.677291,-106.351541,40.677291],"geometry":{"type":"Point","coordinates":[-106.351541,40.677291]}},{"type":"Feature","properties":{"FEATURECLA":"Admin-2 scale rank","SCALERANK":0,"ADM2_CODE":"USA-08059","ISO_A2":"US","ADM0_SR":1,"NAME":"Jefferson","SR_SOV_A3":"US1","SR_ADM0_A3":"USA","ADMIN":"United States of America","SR_GU_A3":"USA"},"bbox":[-105.252551,39.599494,-105.252551,39.599494],"geometry":{"type":"Point","coordinates":[-105.252551,39.599494]}},{"type":"Feature","properties":{"FEATURECLA":"Admin-2 scale rank","SCALERANK":0,"ADM2_CODE":"USA-08061","ISO_A2":"US","ADM0_SR":1,"NAME":"Kiowa","SR_SOV_A3":"US1","SR_ADM0_A3":"USA","ADMIN":"United States of America","SR_GU_A3":"USA"},"bbox":[-102.739561,38.440338,-102.739561,38.440338],"geometry":{"type":"Point","coordinates":[-102.739561,38.440338]}},{"type":"Feature","properties":{"FEATURECLA":"Admin-2 scale rank","SCALERANK":0,"ADM2_CODE":"USA-08063","ISO_A2":"US","ADM0_SR":1,"NAME":"Kit Carson","SR_SOV_A3":"US1","SR_ADM0_A3":"USA","ADMIN":"United States of America","SR_GU_A3":"USA"},"bbox":[-102.602961,39.304659,-102.602961,39.304659],"geometry":{"type":"Point","coordinates":[-102.602961,39.304659]}},{"type":"Feature","properties":{"FEATURECLA":"Admin-2 scale rank","SCALERANK":0,"ADM2_CODE":"USA-08065","ISO_A2":"US","ADM0_SR":1,"NAME":"Lake","SR_SOV_A3":"US1","SR_ADM0_A3":"USA","ADMIN":"United States of America","SR_GU_A3":"USA"},"bbox":[-106.34038,39.207242,-106.34038,39.207242],"geometry":{"type":"Point","coordinates":[-106.34038,39.207242]}},{"type":"Feature","properties":{"FEATURECLA":"Admin-2 scale rank","SCALERANK":0,"ADM2_CODE":"USA-08067","ISO_A2":"US","ADM0_SR":1,"NAME":"La Plata","SR_SOV_A3":"US1","SR_ADM0_A3":"USA","ADMIN":"United States of America","SR_GU_A3":"USA"},"bbox":[-107.843322,37.268626,-107.843322,37.268626],"geometry":{"type":"Point","coordinates":[-107.843322,37.268626]}},{"type":"Feature","properties":{"FEATURECLA":"Admin-2 scale rank","SCALERANK":0,"ADM2_CODE":"USA-08069","ISO_A2":"US","ADM0_SR":1,"NAME":"Larimer","SR_SOV_A3":"US1","SR_ADM0_A3":"USA","ADMIN":"United States of America","SR_GU_A3":"USA"},"bbox":[-105.461936,40.629623,-105.461936,40.629623],"geometry":{"type":"Point","coordinates":[-105.461936,40.629623]}},{"type":"Feature","properties":{"FEATURECLA":"Admin-2 scale rank","SCALERANK":0,"ADM2_CODE":"USA-08071","ISO_A2":"US","ADM0_SR":1,"NAME":"Las Animas","SR_SOV_A3":"US1","SR_ADM0_A3":"USA","ADMIN":"United States of America","SR_GU_A3":"USA"},"bbox":[-104.035435,37.321962,-104.035435,37.321962],"geometry":{"type":"Point","coordinates":[-104.035435,37.321962]}},{"type":"Feature","properties":{"FEATURECLA":"Admin-2 scale rank","SCALERANK":0,"ADM2_CODE":"USA-08073","ISO_A2":"US","ADM0_SR":1,"NAME":"Lincoln","SR_SOV_A3":"US1","SR_ADM0_A3":"USA","ADMIN":"United States of America","SR_GU_A3":"USA"},"bbox":[-103.460296,38.993271,-103.460296,38.993271],"geometry":{"type":"Point","coordinates":[-103.460296,38.993271]}},{"type":"Feature","properties":{"FEATURECLA":"Admin-2 scale rank","SCALERANK":0,"ADM2_CODE":"USA-08075","ISO_A2":"US","ADM0_SR":1,"NAME":"Logan","SR_SOV_A3":"US1","SR_ADM0_A3":"USA","ADMIN":"United States of America","SR_GU_A3":"USA"},"bbox":[-103.110797,40.718196,-103.110797,40.718196],"geometry":{"type":"Point","coordinates":[-103.110797,40.718196]}},{"type":"Feature","properties":{"FEATURECLA":"Admin-2 scale rank","SCALERANK":0,"ADM2_CODE":"USA-08077","ISO_A2":"US","ADM0_SR":1,"NAME":"Mesa","SR_SOV_A3":"US1","SR_ADM0_A3":"USA","ADMIN":"United States of America","SR_GU_A3":"USA"},"bbox":[-108.649369,39.029298,-108.649369,39.029298],"geometry":{"type":"Point","coordinates":[-108.649369,39.029298]}},{"type":"Feature","properties":{"FEATURECLA":"Admin-2 scale rank","SCALERANK":0,"ADM2_CODE":"USA-08079","ISO_A2":"US","ADM0_SR":1,"NAME":"Mineral","SR_SOV_A3":"US1","SR_ADM0_A3":"USA","ADMIN":"United States of America","SR_GU_A3":"USA"},"bbox":[-106.921081,37.670385,-106.921081,37.670385],"geometry":{"type":"Point","coordinates":[-106.921081,37.670385]}},{"type":"Feature","properties":{"FEATURECLA":"Admin-2 scale rank","SCALERANK":0,"ADM2_CODE":"USA-08081","ISO_A2":"US","ADM0_SR":1,"NAME":"Moffat","SR_SOV_A3":"US1","SR_ADM0_A3":"USA","ADMIN":"United States of America","SR_GU_A3":"USA"},"bbox":[-108.206028,40.610803,-108.206028,40.610803],"geometry":{"type":"Point","coordinates":[-108.206028,40.610803]}},{"type":"Feature","properties":{"FEATURECLA":"Admin-2 scale rank","SCALERANK":0,"ADM2_CODE":"USA-08083","ISO_A2":"US","ADM0_SR":1,"NAME":"Montezuma","SR_SOV_A3":"US1","SR_ADM0_A3":"USA","ADMIN":"United States of America","SR_GU_A3":"USA"},"bbox":[-108.597529,37.316165,-108.597529,37.316165],"geometry":{"type":"Point","coordinates":[-108.597529,37.316165]}},{"type":"Feature","properties":{"FEATURECLA":"Admin-2 scale rank","SCALERANK":0,"ADM2_CODE":"USA-08085","ISO_A2":"US","ADM0_SR":1,"NAME":"Montrose","SR_SOV_A3":"US1","SR_ADM0_A3":"USA","ADMIN":"United States of America","SR_GU_A3":"USA"},"bbox":[-108.332845,38.321171,-108.332845,38.321171],"geometry":{"type":"Point","coordinates":[-108.332845,38.321171]}},{"type":"Feature","properties":{"FEATURECLA":"Admin-2 scale rank","SCALERANK":0,"ADM2_CODE":"USA-08087","ISO_A2":"US","ADM0_SR":1,"NAME":"Morgan","SR_SOV_A3":"US1","SR_ADM0_A3":"USA","ADMIN":"United States of America","SR_GU_A3":"USA"},"bbox":[-103.810011,40.262594,-103.810011,40.262594],"geometry":{"type":"Point","coordinates":[-103.810011,40.262594]}},{"type":"Feature","properties":{"FEATURECLA":"Admin-2 scale rank","SCALERANK":0,"ADM2_CODE":"USA-08089","ISO_A2":"US","ADM0_SR":1,"NAME":"Otero","SR_SOV_A3":"US1","SR_ADM0_A3":"USA","ADMIN":"United States of America","SR_GU_A3":"USA"},"bbox":[-103.716165,37.878202,-103.716165,37.878202],"geometry":{"type":"Point","coordinates":[-103.716165,37.878202]}},{"type":"Feature","properties":{"FEATURECLA":"Admin-2 scale rank","SCALERANK":0,"ADM2_CODE":"USA-08091","ISO_A2":"US","ADM0_SR":1,"NAME":"Ouray","SR_SOV_A3":"US1","SR_ADM0_A3":"USA","ADMIN":"United States of America","SR_GU_A3":"USA"},"bbox":[-107.739058,38.162865,-107.739058,38.162865],"geometry":{"type":"Point","coordinates":[-107.739058,38.162865]}},{"type":"Feature","properties":{"FEATURECLA":"Admin-2 scale rank","SCALERANK":0,"ADM2_CODE":"USA-08093","ISO_A2":"US","ADM0_SR":1,"NAME":"Park","SR_SOV_A3":"US1","SR_ADM0_A3":"USA","ADMIN":"United States of America","SR_GU_A3":"USA"},"bbox":[-105.725376,39.129987,-105.725376,39.129987],"geometry":{"type":"Point","coordinates":[-105.725376,39.129987]}},{"type":"Feature","properties":{"FEATURECLA":"Admin-2 scale rank","SCALERANK":0,"ADM2_CODE":"USA-08095","ISO_A2":"US","ADM0_SR":1,"NAME":"Phillips","SR_SOV_A3":"US1","SR_ADM0_A3":"USA","ADMIN":"United States of America","SR_GU_A3":"USA"},"bbox":[-102.357293,40.59439,-102.357293,40.59439],"geometry":{"type":"Point","coordinates":[-102.357293,40.59439]}},{"type":"Feature","properties":{"FEATURECLA":"Admin-2 scale rank","SCALERANK":0,"ADM2_CODE":"USA-08097","ISO_A2":"US","ADM0_SR":1,"NAME":"Pitkin","SR_SOV_A3":"US1","SR_ADM0_A3":"USA","ADMIN":"United States of America","SR_GU_A3":"USA"},"bbox":[-106.864913,39.184893,-106.864913,39.184893],"geometry":{"type":"Point","coordinates":[-106.864913,39.184893]}},{"type":"Feature","properties":{"FEATURECLA":"Admin-2 scale rank","SCALERANK":0,"ADM2_CODE":"USA-08099","ISO_A2":"US","ADM0_SR":1,"NAME":"Prowers","SR_SOV_A3":"US1","SR_ADM0_A3":"USA","ADMIN":"United States of America","SR_GU_A3":"USA"},"bbox":[-102.393206,37.955755,-102.393206,37.955755],"geometry":{"type":"Point","coordinates":[-102.393206,37.955755]}},{"type":"Feature","properties":{"FEATURECLA":"Admin-2 scale rank","SCALERANK":0,"ADM2_CODE":"USA-08101","ISO_A2":"US","ADM0_SR":1,"NAME":"Pueblo","SR_SOV_A3":"US1","SR_ADM0_A3":"USA","ADMIN":"United States of America","SR_GU_A3":"USA"},"bbox":[-104.503105,38.190051,-104.503105,38.190051],"geometry":{"type":"Point","coordinates":[-104.503105,38.190051]}},{"type":"Feature","properties":{"FEATURECLA":"Admin-2 scale rank","SCALERANK":0,"ADM2_CODE":"USA-08103","ISO_A2":"US","ADM0_SR":1,"NAME":"Rio Blanco","SR_SOV_A3":"US1","SR_ADM0_A3":"USA","ADMIN":"United States of America","SR_GU_A3":"USA"},"bbox":[-108.215372,39.95834,-108.215372,39.95834],"geometry":{"type":"Point","coordinates":[-108.215372,39.95834]}},{"type":"Feature","properties":{"FEATURECLA":"Admin-2 scale rank","SCALERANK":0,"ADM2_CODE":"USA-08105","ISO_A2":"US","ADM0_SR":1,"NAME":"Rio Grande","SR_SOV_A3":"US1","SR_ADM0_A3":"USA","ADMIN":"United States of America","SR_GU_A3":"USA"},"bbox":[-106.383232,37.574405,-106.383232,37.574405],"geometry":{"type":"Point","coordinates":[-106.383232,37.574405]}},{"type":"Feature","properties":{"FEATURECLA":"Admin-2 scale rank","SCALERANK":0,"ADM2_CODE":"USA-08107","ISO_A2":"US","ADM0_SR":1,"NAME":"Routt","SR_SOV_A3":"US1","SR_ADM0_A3":"USA","ADMIN":"United States of America","SR_GU_A3":"USA"},"bbox":[-106.998596,40.529346,-106.998596,40.529346],"geometry":{"type":"Point","coordinates":[-106.998596,40.529346]}},{"type":"Feature","properties":{"FEATURECLA":"Admin-2 scale rank","SCALERANK":0,"ADM2_CODE":"USA-08109","ISO_A2":"US","ADM0_SR":1,"NAME":"Saguache","SR_SOV_A3":"US1","SR_ADM0_A3":"USA","ADMIN":"United States of America","SR_GU_A3":"USA"},"bbox":[-106.281164,38.085579,-106.281164,38.085579],"geometry":{"type":"Point","coordinates":[-106.281164,38.085579]}},{"type":"Feature","properties":{"FEATURECLA":"Admin-2 scale rank","SCALERANK":0,"ADM2_CODE":"USA-08113","ISO_A2":"US","ADM0_SR":1,"NAME":"San Miguel","SR_SOV_A3":"US1","SR_ADM0_A3":"USA","ADMIN":"United States of America","SR_GU_A3":"USA"},"bbox":[-108.40533,38.023091,-108.40533,38.023091],"geometry":{"type":"Point","coordinates":[-108.40533,38.023091]}},{"type":"Feature","properties":{"FEATURECLA":"Admin-2 scale rank","SCALERANK":0,"ADM2_CODE":"USA-08115","ISO_A2":"US","ADM0_SR":1,"NAME":"Sedgwick","SR_SOV_A3":"US1","SR_ADM0_A3":"USA","ADMIN":"United States of America","SR_GU_A3":"USA"},"bbox":[-102.352036,40.874351,-102.352036,40.874351],"geometry":{"type":"Point","coordinates":[-102.352036,40.874351]}},{"type":"Feature","properties":{"FEATURECLA":"Admin-2 scale rank","SCALERANK":0,"ADM2_CODE":"USA-08117","ISO_A2":"US","ADM0_SR":1,"NAME":"Summit","SR_SOV_A3":"US1","SR_ADM0_A3":"USA","ADMIN":"United States of America","SR_GU_A3":"USA"},"bbox":[-106.056202,39.555598,-106.056202,39.555598],"geometry":{"type":"Point","coordinates":[-106.056202,39.555598]}},{"type":"Feature","properties":{"FEATURECLA":"Admin-2 scale rank","SCALERANK":0,"ADM2_CODE":"USA-08119","ISO_A2":"US","ADM0_SR":1,"NAME":"Teller","SR_SOV_A3":"US1","SR_ADM0_A3":"USA","ADMIN":"United States of America","SR_GU_A3":"USA"},"bbox":[-105.184646,38.944741,-105.184646,38.944741],"geometry":{"type":"Point","coordinates":[-105.184646,38.944741]}},{"type":"Feature","properties":{"FEATURECLA":"Admin-2 scale rank","SCALERANK":0,"ADM2_CODE":"USA-08121","ISO_A2":"US","ADM0_SR":1,"NAME":"Washington","SR_SOV_A3":"US1","SR_ADM0_A3":"USA","ADMIN":"United States of America","SR_GU_A3":"USA"},"bbox":[-103.139632,39.964105,-103.139632,39.964105],"geometry":{"type":"Point","coordinates":[-103.139632,39.964105]}},{"type":"Feature","properties":{"FEATURECLA":"Admin-2 scale rank","SCALERANK":0,"ADM2_CODE":"USA-08123","ISO_A2":"US","ADM0_SR":1,"NAME":"Weld","SR_SOV_A3":"US1","SR_ADM0_A3":"USA","ADMIN":"United States of America","SR_GU_A3":"USA"},"bbox":[-104.540686,40.584978,-104.540686,40.584978],"geometry":{"type":"Point","coordinates":[-104.540686,40.584978]}},{"type":"Feature","properties":{"FEATURECLA":"Admin-2 scale rank","SCALERANK":0,"ADM2_CODE":"USA-08125","ISO_A2":"US","ADM0_SR":1,"NAME":"Yuma","SR_SOV_A3":"US1","SR_ADM0_A3":"USA","ADMIN":"United States of America","SR_GU_A3":"USA"},"bbox":[-102.424134,40.005263,-102.424134,40.005263],"geometry":{"type":"Point","coordinates":[-102.424134,40.005263]}},{"type":"Feature","properties":{"FEATURECLA":"Admin-2 scale rank","SCALERANK":0,"ADM2_CODE":"USA-09003","ISO_A2":"US","ADM0_SR":1,"NAME":"Hartford","SR_SOV_A3":"US1","SR_ADM0_A3":"USA","ADMIN":"United States of America","SR_GU_A3":"USA"},"bbox":[-72.733338,41.814138,-72.733338,41.814138],"geometry":{"type":"Point","coordinates":[-72.733338,41.814138]}},{"type":"Feature","properties":{"FEATURECLA":"Admin-2 scale rank","SCALERANK":0,"ADM2_CODE":"USA-09005","ISO_A2":"US","ADM0_SR":1,"NAME":"Litchfield","SR_SOV_A3":"US1","SR_ADM0_A3":"USA","ADMIN":"United States of America","SR_GU_A3":"USA"},"bbox":[-73.247715,41.798011,-73.247715,41.798011],"geometry":{"type":"Point","coordinates":[-73.247715,41.798011]}},{"type":"Feature","properties":{"FEATURECLA":"Admin-2 scale rank","SCALERANK":0,"ADM2_CODE":"USA-09009","ISO_A2":"US","ADM0_SR":1,"NAME":"New Haven","SR_SOV_A3":"US1","SR_ADM0_A3":"USA","ADMIN":"United States of America","SR_GU_A3":"USA"},"bbox":[-72.996224,41.429535,-72.996224,41.429535],"geometry":{"type":"Point","coordinates":[-72.996224,41.429535]}},{"type":"Feature","properties":{"FEATURECLA":"Admin-2 scale rank","SCALERANK":0,"ADM2_CODE":"USA-09013","ISO_A2":"US","ADM0_SR":1,"NAME":"Tolland","SR_SOV_A3":"US1","SR_ADM0_A3":"USA","ADMIN":"United States of America","SR_GU_A3":"USA"},"bbox":[-72.353974,41.873335,-72.353974,41.873335],"geometry":{"type":"Point","coordinates":[-72.353974,41.873335]}},{"type":"Feature","properties":{"FEATURECLA":"Admin-2 scale rank","SCALERANK":0,"ADM2_CODE":"USA-09015","ISO_A2":"US","ADM0_SR":1,"NAME":"Windham","SR_SOV_A3":"US1","SR_ADM0_A3":"USA","ADMIN":"United States of America","SR_GU_A3":"USA"},"bbox":[-71.98594,41.818597,-71.98594,41.818597],"geometry":{"type":"Point","coordinates":[-71.98594,41.818597]}},{"type":"Feature","properties":{"FEATURECLA":"Admin-2 scale rank","SCALERANK":0,"ADM2_CODE":"USA-10001","ISO_A2":"US","ADM0_SR":1,"NAME":"Kent","SR_SOV_A3":"US1","SR_ADM0_A3":"USA","ADMIN":"United States of America","SR_GU_A3":"USA"},"bbox":[-75.571212,39.090208,-75.571212,39.090208],"geometry":{"type":"Point","coordinates":[-75.571212,39.090208]}},{"type":"Feature","properties":{"FEATURECLA":"Admin-2 scale rank","SCALERANK":0,"ADM2_CODE":"USA-10005","ISO_A2":"US","ADM0_SR":1,"NAME":"Sussex","SR_SOV_A3":"US1","SR_ADM0_A3":"USA","ADMIN":"United States of America","SR_GU_A3":"USA"},"bbox":[-75.405302,38.667782,-75.405302,38.667782],"geometry":{"type":"Point","coordinates":[-75.405302,38.667782]}},